name,brewery_type,address_1,city,state_province,postal_code,longitude,latitude,state,zip_code,brewery_id
(405) Brewing Co,micro,1716 Topeka St,Norman,Oklahoma,73069-8224,-97.46818222,35.25738891,Oklahoma,73069,1
10 Barrel Brewing Co,large,1501 E St,San Diego,California,92101-6618,-117.129593,32.714813,California,92101,3
10 Barrel Brewing Co,large,62970 18th St,Bend,Oregon,97701-9847,-121.281706,44.08683531,Oregon,97701,4
10 Barrel Brewing Co,large,1135 NW Galveston Ave Ste B,Bend,Oregon,97703-2465,-121.3288021,44.0575649,Oregon,97703,5
10 Barrel Brewing Co,large,1411 NW Flanders St,Portland,Oregon,97209-2620,-122.6855056,45.5259786,Oregon,97209,6
10 Barrel Brewing Co - Bend Pub,large,62950 NE 18th St,Bend,Oregon,97701,-121.2809536,44.0912109,Oregon,97701,7
10 Barrel Brewing Co - Boise,large,826 W Bannock St,Boise,Idaho,83702-5857,-116.202929,43.618516,Idaho,83702,8
10 Barrel Brewing Co - Denver,large,2620 Walnut St,Denver,Colorado,80205-2231,-104.9853655,39.7592508,Colorado,80205,9
10 Torr Distilling and Brewing,micro,490 Mill St,Reno,Nevada,89502,-119.7732015,39.5171702,Nevada,89502,10
10-56 Brewing Company,micro,400 Brown Cir,Knox,Indiana,46534,-86.627954,41.289715,Indiana,46534,11
101 Brewery,brewpub,294793 US Highway 101,Quilcene,Washington,98376-9000,-122.8755823,47.82347577,Washington,98376,12
101 North Brewing Company,closed,1304 Scott St Ste D,Petaluma,California,94954-7100,-122.665055,38.27029381,California,94954,13
105 West Brewing Co,micro,1043 Park St,Castle Rock,Colorado,80109-1585,-104.8667206,39.38269495,Colorado,80109,14
10K Brewing,micro,2005 2nd Ave,Anoka,Minnesota,55303-2243,-93.38952559,45.19812039,Minnesota,55303,15
10th District Brewing Company,micro,491 Washington St,Abington,Massachusetts,02351-2419,-70.94594149,42.10591754,Massachusetts,02351,16
11 Below Brewing Company,micro,6820 Bourgeois Rd,Houston,Texas,77066-3107,-95.5186591,29.9515464,Texas,77066,17
1188 Brewing Co,brewpub,141 E Main St,John Day,Oregon,97845-1210,-118.9218754,44.4146563,Oregon,97845,18
12 West Brewing Company - Production Facility,micro,,Mesa,Arizona,85207,-111.5860662,33.436188,Arizona,85207,21
122 West Brewing Co,closed,2416 Meridian St,Bellingham,Washington,98225-2405,-122.485982,48.7621709,Washington,98225,22
127 Brewing,micro,3090 Shirley Dr,Jackson,Michigan,49201-7010,-84.43116792,42.28667212,Michigan,49201,23
12Degree Brewing,brewpub,820 Main St,Louisville,Colorado,80027-1865,-105.1319826,39.9782443,Colorado,80027,24
13 Below Brewery,micro,7391 Forbes Rd,Cincinnati,Ohio,45233-1013,-84.70634815,39.12639764,Ohio,45233,26
13 Virtues Brewing Co,brewpub,6410 SE Milwaukie Ave,Portland,Oregon,97202-5518,-122.6487531,45.4762536,Oregon,97202,28
14 Cannons Brewing Company,micro,31125 Via Colinas Ste 907,Westlake Village,California,91362-3974,-118.802397,34.15334,California,91362,30
14er Brewing Company,proprietor,2801 Walnut St,Denver,Colorado,80205-2235,-104.9839636,39.7614112,Colorado,80205,32
16 Lots Brewing,brewpub,753 Reading Rd,Mason,Ohio,45040-1303,-84.3183801,39.3545967,Ohio,45040,34
16 Mile Brewing Co,micro,413 S Bedford St,Georgetown,Delaware,19947-1849,-75.37816436,38.6788938,Delaware,19947,35
16 Stone Brewpub,brewpub,9542 Main St,Holland Patent,New York,13354,-75.2565195,43.24211175,New York,13354,36
1717 Brewing Co,micro,322 E Court Ave,Des Moines,Iowa,50309-2015,-93.6120353,41.5872267,Iowa,50309,38
1718 Ocracoke Brewing,brewpub,1129 Irvin Garrish Hwy,Ocracoke,North Carolina,27960,-75.97176063,35.10715368,North Carolina,27960,39
180 and Tapped,micro,2010 A State Ave,Coraopolis,Pennsylvania,15108,-80.15020356,40.50984957,Pennsylvania,15108,41
1817 Brewery,micro,100 B South Olive St,okolona,Mississippi,38860,-88.750264,34.001703,Mississippi,38860,42
1840 Brewing Company,micro,342 E Ward St,Milwaukee,Wisconsin,53207-1348,-87.90606942,43.00436242,Wisconsin,53207,43
1850 Brewing Company,micro,,Mariposa,California,95338,-119.9036592,37.570148,California,95338,44
18th Street Brewery,micro,5725 Miller Ave,Gary,Indiana,46403-2871,-87.26887786,41.59928343,Indiana,46403,45
18th Street Brewery,micro,5417 Oakley Ave,Hammond,Indiana,46320-1817,-87.517422,41.61556796,Indiana,46320,46
1905 Brewing Company,micro,1301 S Chestnut St,Assumption,Illinois,62510-8504,-89.0503635,39.5172564,Illinois,62510,47
1912 Brewing,micro,2045 N Forbes Blvd Ste 105,Tucson,Arizona,85745-1444,-110.9927505,32.24673727,Arizona,85745,48
192 Brewing,micro,7324 NE 175th St,Kenmore,Washington,98028-2500,-122.2415652,47.75670075,Washington,98028,49
2 Basset Brewery,micro,202 E Main St,White Sulphur Springs,Montana,59645-9081,-110.9004865,46.54807609,Montana,59645,52
2 Dogz and A Guy Brewing,micro,228 Church St,Montrose,Pennsylvania,18801-1271,-75.8800318,41.8336364,Pennsylvania,18801,53
2 Feet Brewing Company,brewpub,80 Columbia St,Bangor,Maine,04401-6319,-68.77283099,44.80012684,Maine,04401,54
2 Row Brewing,micro,6856 S 300 W,Midvale,Utah,84047-1083,-111.9007652,40.5950202,Utah,84047,55
2 Tones Brewing Co.,micro,4539 E Broad St,Whitehall,Ohio,43213-1308,-82.9118174,40.0030689,Ohio,43213,57
2 Tread Brewing Co,brewpub,1018 Santa Rosa Plz,Santa Rosa,California,95401-6399,-122.7167729,38.4387767,California,95401,58
2 Way Brewing Company,brewpub,18 W Main St,Beacon,New York,12508-2512,-73.9809868,41.5082102,New York,12508,59
2 Witches Winery and Brewing Company,micro,209 Trade St,Danville,Virginia,24541-3545,-79.42125553,36.58590349,Virginia,24541,60
20 Corners Brewing LLC,brewpub,14148 NE 190th St Ste A,Woodinville,Washington,98072-8437,-122.1517007,47.76864301,Washington,98072,61
210 Brewing Co,brewpub,3438 Stoluckquamish Ln,Arlington,Washington,98223-9056,-122.18421,48.215096,Washington,98223,62
217 Brew Works,micro,217 South St S,Wilson,North Carolina,27893-4911,-77.9120318,35.7227625,North Carolina,27893,64
21st Amendment Brewery,regional,2010 Williams St Unit A,San Leandro,California,94577-2334,-122.1772928,37.71130036,California,94577,65
21st Amendment Brewery Cafe,brewpub,563 2nd St,San Francisco,California,94107-1411,-122.3925769,37.782448,California,94107,66
21st St Brewers Bar,brewpub,2017 Chouteau Ave,Saint Louis,Missouri,63103,-90.213781,38.624291,Missouri,63103,67
23rd Street Brewery,brewpub,3512 Clinton Pkwy,Lawrence,Kansas,66047-2145,-95.28093353,38.9429674,Kansas,66047,70
26 Degree Brewing Company,micro,2600 E Atlantic Blvd,Pompano Beach,Florida,33062-4940,-80.1224169,26.2316338,Florida,33062,71
2C Family Brewing Co.,micro,1215 1st St S,Nampa,Idaho,83651-3957,-116.559282,43.578989,Idaho,83651,73
2Kids Brewing Company,micro,8680 Miralani Dr Ste 123,San Diego,California,92126-6391,-117.137429,32.896584,California,92126,74
2nd Shift Brewing Co,brewpub,1601 Sublette Ave,Saint Louis,Missouri,63110-1924,-90.280526,38.621943,Missouri,63110,75
3 Beards Beer Company,contract,4 Main St,Williamsburg,Massachusetts,01096,-72.7305059,42.3923659,Massachusetts,01096,78
3 Daughters Brewing,micro,222 22nd St S,Saint Petersburg,Florida,33712-1240,-82.6629721,27.76899022,Florida,33712,79
3 Disciples Brewing,micro,,Sebastopol,California,95472-5937,-122.8332502,38.3845125,California,95472,80
3 Freaks Brewing Co,micro,7140 E County Line Rd,Highlands Ranch,Colorado,80126-3926,-104.9426656,39.5659575,Colorado,80126,81
3 Iron Brewing Company,micro,898 Via Lata Ste A,Colton,California,92324-3920,-117.3066993,34.05616889,California,92324,82
"3 Keys Brewing Company, LLC",brewpub,2505 Manatee Ave E,Bradenton,Florida,34208-2421,-82.53393502,27.49645026,Florida,34208,83
7venth Sun Tampa,micro,6809 N Nebraska Ave,Tampa,Florida,33604-5660,-82.4500207,27.9495902,Florida,33604,84
3 Nations Brewing,micro,2405 Squire Pl Ste 200,Farmers Branch,Texas,75234-4714,-96.89883128,32.93044336,Texas,75234,85
3 Sheeps Brewing Co,micro,1837 North Ave,Sheboygan,Wisconsin,53083-4620,-87.73006524,43.77384561,Wisconsin,53083,86
3 Sons Brewing Co.,proprietor,236 N Federal Hwy,Dania,Florida,33004-2870,-80.14361029,26.04800238,Florida,33004,88
3 Trails Brewing Co,micro,111 N Main St ,Independence,Missouri,64050,-94.41265,39.122385,Missouri,64050,90
32 North Brewing Co,closed,8655 Production Ave Ste A,San Diego,California,92121-2258,-117.1649842,32.88313237,California,92121,93
34 Degree North Experiment Station,micro,4802 Main St,Shallotte,North Carolina,28470,-78.38636517,33.97270364,North Carolina,28470,94
350 Brewing Co,brewpub,7144 183rd St,Tinley Park,Illinois,60477-3933,-87.79160288,41.55864726,Illinois,60477,95
38Â°-75Â° Brewing,brewpub,2000 Coastal Highway STE 105,Rehoboth Beach,Delaware,19971,-75.090191,38.7074994,Delaware,19971,98
3cross Fermentation Cooperative,micro,4 Knowlton Ave,Worcester,Massachusetts,01603,-71.83057593,42.24364875,Massachusetts,01603,99
3Halves Brewing Co,brewpub,110 E Kansas St,Liberty,Missouri,64068-2374,-94.4190247,39.2461993,Missouri,64068,100
3rd Degree Brewhouse,micro,1625 N Main St,Fuquay Varina,North Carolina,27526,-78.794223,35.5914556,North Carolina,27526,101
3rd Rock Brewing Company,micro,134 Industrial Park Dr,Trenton,North Carolina,28585-9593,-77.36749285,35.06939877,North Carolina,28585,103
3rd Turn Brewing,micro,10408 Watterson Trl,Louisville,Kentucky,40299-3702,-85.56656078,38.19322725,Kentucky,40299,104
4 By 4 Brewing Company,micro,2811 E Galloway St Ste A,Springfield,Missouri,65804-4601,-93.239889,37.147986,Missouri,65804,106
4 Hands Brewing Co,regional,1220 S 8th St,Saint Louis,Missouri,63104-3610,-90.19762012,38.61526593,Missouri,63104,107
4 Stitch Brewing Co,nano,7 192nd St SW,Bothell,Washington,98012,-122.2328187,47.82525617,Washington,98012,109
411 Broadway Ales,planning,,Fresno,California,93721-2801,-119.7088613,36.7295295,California,93721,112
42 North Brewing Company,brewpub,25 Pine St,East Aurora,New York,14052-1827,-78.607989,42.769311,New York,14052,114
4204 Main Street Brewing Co,brewpub,4204 W Main St,Belleville,Illinois,62226,-90.02053343,38.53796122,Illinois,62226,115
47 Hills Brewing Co,brewpub,137 S Linden Ave,South San Francisco,California,94080-6410,-122.4136168,37.64425595,California,94080,117
49th State Brewing Co,micro,248.4 Parks Hwy 5 Mile,Healy,Alaska,99743,-149.017877,63.864759,Alaska,99743,118
49th State Brewing Co - Anchorage,brewpub,717 W 3rd Ave,Anchorage,Alaska,99501-2104,-149.8958196,61.2197366,Alaska,99501,119
4B's Brewery,brewpub,215 W Main St,Cedaredge,Colorado,81413-3339,-107.925782,38.900614,Colorado,81413,120
4kd Crick Brewery,brewpub,211 Carpenter Rd,Defiance,Ohio,43512-1718,-84.341647,41.296252,Ohio,43512,122
4th Tap Brewing Cooperative,micro,10615 Metric Blvd,Austin,Texas,78758-4520,-97.7118913,30.3852024,Texas,78758,123
5 Alarm Brewing Co,micro,211 W Main St,Lake Mills,Iowa,50450,-93.53398788,43.41926615,Iowa,50450,124
5 Lakes Brewing Co.,brewpub,1638 142nd Ave,Dorr,Michigan,49323-9312,-85.70445518,42.72497157,Michigan,49323,125
5 North Brewing Company,brewpub,6501 N Cedar Rd,Spokane,Washington,99208,-117.4328496,47.71758683,Washington,99208,127
5 Rabbit Cerveceria Inc,micro,6398 W 74th St,Chicago,Illinois,60638-6129,-87.6572069,41.7595502,Illinois,60638,128
5 Rights Brewing Co,micro,1514 3rd St,Marysville,Washington,98270,-122.1762906,48.05156015,Washington,98270,129
5 Rivers Brewing LLC,planning,,Spanish Fort,Alabama,36527-3161,-87.9152724,30.6749127,Alabama,36527,130
5 Seasons Brewing Co - Prado,brewpub,5600 Roswell Rd,Sandy Springs,Georgia,30342-1150,-84.3796711,33.9078086,Georgia,30342,131
5 Stones Artisan Brewery,micro,11335 Farm To Market Road 1863,New Braunfels,Texas,78132,-98.232345,29.711365,Texas,78132,133
515 Brewing Co,micro,7700 University Ave,Clive,Iowa,50325-1271,-93.7228408,41.599992,Iowa,50325,134
5150 Brewing At The Brass Tap Rocklin,micro,5150 Commons Dr Ste 101,Rocklin,California,95677-3925,-121.207331,38.8047402,California,95677,135
51st State Brewing Company,brewpub,115 Harding Ave,Kingsford,Michigan,49802-3815,-88.08819,45.808408,Michigan,49802,136
51st Ward Beer Company,contract,323 N Washington St,Westmont,Illinois,60559-1512,-87.981157,41.804494,Illinois,60559,137
54-40 Brewing Company,brewpub,3801 S Truman Rd Ste 1,Washougal,Washington,98671-2589,-122.3269349,45.56577849,Washington,98671,138
550 Brewing,proprietor,119 E Chuska St,Aztec,New Mexico,87410-2110,-107.9950235,36.8213739,New Mexico,87410,139
559 Local Brewing,micro,608 4th St,Clovis,California,93612-1183,-119.7017487,36.82517171,California,93612,140
5770 Brewery,micro,303A W Main St,Teutopolis,Illinois,62467-1355,-88.47806652,39.13142194,Illinois,62467,142
5th Line Brewing Co,micro,1015 E Lincoln Ave Ste 106,Yakima,Washington,98901,-120.4930458,46.61136701,Washington,98901,144
6 & 40 Brewery/Taproom,planning,,Lakewood,Colorado,80215-5548,-105.1100582,39.6311085,Colorado,80215,146
6 Degrees of Separation,brewpub,35 Main St,Ossining,New York,10562-4662,-73.86768188,41.15866213,New York,10562,149
612 Brew,micro,945 Broadway St NE,Minneapolis,Minnesota,55413-1471,-93.2062058,45.000631,Minnesota,55413,152
6th and La Brea,brewpub,600 South La Brea Ave,Los Angeles,California,90036,-118.3440213,34.0730485,California,90036,153
7 Devils Brewing Co,brewpub,247 S 2nd St,Coos Bay,Oregon,97420-1642,-124.2147508,43.36654751,Oregon,97420,154
7 Hills Brewing Company,brewpub,1085 Washington St,Dubuque,Iowa,52001-4932,-90.6635263,42.5045556,Iowa,52001,156
7 Seas Brewing Co,micro,2101 Jefferson Ave,Tacoma,Washington,98402-1519,-122.4390379,47.242614,Washington,98402,159
7 Sins Brewery,micro,10593 W Main Rd,Ripley,New York,14775-9746,-79.7497349,42.24869073,New York,14775,160
7 Sisters Brewing Co,brewpub,181 Tank Farm Rd Ste 110,San Luis Obispo,California,93401-7082,-120.6706375,35.2467278,California,93401,161
"718BrewCafe, LLP",brewpub,718 Market St,Metropolis,Illinois,62960-1634,-88.73129158,37.15373334,Illinois,62960,162
734 Brewing Company,micro,15 E Cross St,Ypsilanti,Michigan,48198,-83.61103475,42.24586784,Michigan,48198,163
7th Settlement Brewery,brewpub,47 Washington St,Dover,New Hampshire,03820-3877,-70.8728379,43.1953787,New Hampshire,03820,164
8 Bit Brewing Company,brewpub,26755 Jefferson Ave Ste F,Murrieta,California,92562-6941,-117.1762542,33.53033448,California,92562,168
841 Brewhouse,brewpub,841 E Milwaukee St,Whitewater,Wisconsin,53190-2126,-88.71427344,42.8323014,Wisconsin,53190,171
8one8 Brewing Company,micro,8951 de Soto Ave,Canoga Park,California,91304-5901,-118.5885323,34.2218019,California,91304,172
8th Street Ale Haus,brewpub,1132 N 8th St,Sheboygan,Wisconsin,53081-3402,-87.71305702,43.75674392,Wisconsin,53081,173
8th Wonder Brewery,micro,2202 Dallas St,Houston,Texas,77003-3519,-95.3559402,29.7487783,Texas,77003,175
903 Brewers,micro,1718 S Elm St,Sherman,Texas,75090-8725,-96.60698055,33.61788732,Texas,75090,176
927 Beer Company,micro,821 Cornwall St,Cambria,California,93428-2434,-121.0985408,35.5666725,California,93428,177
95ate5 Brewpub,brewpub,9585 N Industrial Dr,Saint John,Indiana,46373,-87.46380305,41.44400246,Indiana,46373,178
A Homestead Brew,micro,26685 486th Ave,Valley Springs,South Dakota,57068-7309,-96.49421923,43.51733014,South Dakota,57068,180
Aardwolf Brewing Company,micro,1461 Hendricks Ave,Jacksonville,Florida,32207-8622,-81.6545197,30.3108962,Florida,32207,182
Abbey Brewing Co,contract,1115 16th St,Miami Beach,Florida,33139-2441,-80.1402943,25.7890381,Florida,33139,185
"Abbey Brewing Company, LLC",micro,215 W. Alicante Rd,Santa Fe,New Mexico,87505,-105.9465207,35.66555826,New Mexico,87505,186
Aberrant Ales,brewpub,219 W Grand River Ave,Howell,Michigan,48843,-83.93094539,42.60773722,Michigan,48843,187
Abide Brewing Company,micro,110 Werz Industrial Blvd Ste 130,Newnan,Georgia,30263-5802,-84.76356641,33.40257035,Georgia,30263,188
Abigaile,brewpub,1301 Manhattan Ave,Hermosa Beach,California,90254-3666,-118.4048656,33.8734519,California,90254,189
Able Ebenezer Brewing Company,micro,31 Columbia Cir,Merrimack,New Hampshire,03054-4161,-71.493705,42.851742,New Hampshire,03054,193
Able Seedhouse and Brewery,micro,1121 Quincy St NE,Minneapolis,Minnesota,55413-2773,-93.2510686,44.9993934,Minnesota,55413,194
Abnormal Beer Company,micro,16990 Via Tazon Ste 123,San Diego,California,92127-1649,-117.08575,33.02391,California,92127,196
Abolitionist Ale Works,brewpub,129 W Washington St,Charles Town,West Virginia,25414-1529,-77.8607888,39.28867207,West Virginia,25414,197
Abridged Beer Company,brewpub,100 Lockett Rd,Knoxville,Tennessee,37919-4807,-84.016459,35.932287,Tennessee,37919,198
Absolution Brewing Co,micro,2878 Columbia St,Torrance,California,90503-3808,-118.3378601,33.8431391,California,90503,199
Absolution By the Sea,brewpub,7536 Fay Ave,La Jolla,California,92037-4839,-117.2740167,32.84083388,California,92037,200
Accomplice Beer Company,brewpub,115 W 15th St,Cheyenne,Wyoming,82001-4564,-104.819296,41.130063,Wyoming,82001,201
Acidulous Brewing Company,contract,6712 S Independence St,Littleton,Colorado,80128-4046,-105.1059543,39.5383949,Colorado,80128,202
Acopon Brewing Co,micro,211 W Mercer St,Dripping Springs,Texas,78620-5363,-98.09006208,30.19269957,Texas,78620,203
Acorn Brewing,micro,2105 Meridian Ave E,Edgewood,Washington,98371,-122.2934912,47.23859752,Washington,98371,204
Acoustic Ales Brewing Experiment,closed,1795 Hancock St Ste P1,San Diego,California,92110-2006,-117.1840465,32.74219079,California,92110,205
"Actual Brewing Company, LLC",micro,655 N James Rd,Columbus,Ohio,43219-1837,-82.9080986,39.9868523,Ohio,43219,206
Adam's Northwest Bistro / Twin Rivers Brewing,brewpub,104 N Lewis St,Monroe,Washington,98272-1502,-121.970887,47.85588471,Washington,98272,207
Adelbert's Brewery LLC,micro,2314 Rutland Dr Ste 100,Austin,Texas,78758-5273,-97.7201589,30.3826286,Texas,78758,208
Adirondack Pub and Brewery,micro,33 Canada St,Lake George,New York,12845-1603,-73.71407763,43.41850655,New York,12845,209
Adirondack Toboggan Company Microbrewery,micro,202A W Main St,Gouverneur,New York,13642-1334,-75.47489238,44.33237311,New York,13642,210
AdMerk Corp. Inc.,contract,20 F St NW,Washington,District of Columbia,20001-6700,-77.0094205,38.89742205,District of Columbia,20001,211
Adobe Creek Brewing Company,micro,67 Galli Dr Ste E,Novato,California,94949-5718,-122.5358157,38.07349982,California,94949,212
Aero Craft Brewing,planning,,Denver,Colorado,80212-2199,-104.984696,39.7391428,Colorado,80212,216
Aero Plains Brewing,micro,117 N Handley St,Wichita,Kansas,67203-6114,-97.35071131,37.68455054,Kansas,67203,217
Aeronaut Brewing Company,micro,14 Tyler St,Somerville,Massachusetts,02143-3224,-71.1062676,42.3819723,Massachusetts,02143,218
Aftershock Brewing Co,micro,28822 Old Town Front St Ste 107,Temecula,California,92590-2893,-117.1485306,33.49310382,California,92590,219
Afterthought Brewing Company,micro,844 N Ridge Ave,Lombard,Illinois,60148-1215,-88.02234574,41.90549742,Illinois,60148,220
Against the Grain Brewery,micro,401 E Main St,Louisville,Kentucky,40202-1110,-85.7440377,38.2554568,Kentucky,40202,222
Against the Grain Production Facility,micro,1800 Northwestern Pkwy,Louisville,Kentucky,40203,-85.7767241,38.2658758,Kentucky,40203,223
"Agrarian Ales, LLC",closed,31115 W Crossroads Ln,Eugene,Oregon,97408-9220,-123.1277712,44.18922784,Oregon,97408,225
Aigean Ales,micro,250 Commercial St Ste 2001,Manchester,New Hampshire,03101-1165,-71.46899187,42.9899594,New Hampshire,03101,227
Aiken Brewing Co,brewpub,140 Laurens St SW,Aiken,South Carolina,29801-3848,-81.7228141,33.5603084,South Carolina,29801,228
Airline Brewing Company,micro,22 Mill Ln,Amherst,Maine,04428,-68.3677435,44.8329462,Maine,04428,229
Airways Brewing Co,micro,8611 S 212th St,Kent,Washington,98031-1910,-122.2391026,47.4119802,Washington,98031,230
Airways Brewing Co. Bistro & Beer Garden,brewpub,320 W Harrison St,Kent,Washington,98032,-122.235649,47.382498,Washington,98032,231
Akademia Brewing Company,brewpub,150 Crane Dr,Athens,Georgia,30606-0600,-83.47153754,33.94270289,Georgia,30606,232
Akronym Brewing LLC,micro,58 E Market St,Akron,Ohio,44308,-81.51645882,41.08512193,Ohio,44308,234
Alameda Brewing Co,micro,4736 SE 24th Ave,Portland,Oregon,97202-4787,-122.6412495,45.48882655,Oregon,97202,236
Alameda Brewing Co,micro,4765 NE Fremont St,Portland,Oregon,97213-1724,-122.6136209,45.54849565,Oregon,97213,237
Alameda Island Brewing Company,micro,1716 Park St,Alameda,California,94501-1416,-122.2394506,37.76833631,California,94501,238
Alamo Beer Co,micro,415 Burnet St,San Antonio,Texas,78202-1909,-98.4771638,29.42902321,Texas,78202,239
Alaro Craft Brewery,brewpub,2004 Capitol Ave,Sacramento,California,95811,-121.4811835,38.57323961,California,95811,241
Alaskan Brewing Co.,regional,5429 Shaune Dr,Juneau,Alaska,99801-9540,-134.4918763,58.35681231,Alaska,99801,242
Albia Brewing Co,brewpub,11 Benton Ave E,Albia,Iowa,52531-2032,-92.8073711,41.02718903,Iowa,52531,243
Albion Malleable Brewing Company,brewpub,420 S Superior St,Albion,Michigan,49224,-84.7532755,42.2423188,Michigan,49224,244
Alcatraz Brewing,micro,20 Ocean Vista Ln,Palm Coast,Florida,32137-2743,-81.19287028,29.61781196,Florida,32137,246
Aldus Brewing Company,micro,555 Centennial Ave,Hanover,Pennsylvania,17331-3936,-76.98030009,39.79422185,Pennsylvania,17331,249
Ale Asylum,regional,2002 Pankratz St,Madison,Wisconsin,53704-4024,-89.35416285,43.12046815,Wisconsin,53704,250
Ale House Brewing Co,micro,,San Jose,California,95118-1605,-121.8905833,37.3361905,California,95118,251
Ale Industries,micro,3096 E 10th St,Oakland,California,94601-2960,-122.2281897,37.7761111,California,94601,252
Ale Spike Brewery,micro,1244 N Moore Rd Unit I-1,Camano Island,Washington,98282,-122.4381311,48.25785496,Washington,98282,255
Aleman Brewing,micro,3304 N Knox Ave,Chicago,Illinois,60641-4434,-87.74301213,41.94087994,Illinois,60641,256
Alesatian Brewing Co.,brewpub,21 N Loudoun St,Winchester,Virginia,22601-4715,-78.16559208,39.18446446,Virginia,22601,258
AleSmith Brewing Co,regional,9990 Alesmith Ct,San Diego,California,92126-4200,-117.1495496,32.88858458,California,92126,259
Alesong Brewing and Blending,micro,1000 Conger St Ste C,Eugene,Oregon,97402-2950,-123.2384193,43.85285684,Oregon,97402,260
Alesong Brewing and Tasting Room,micro,1000 Conger Unit C,Eugene,Oregon,97402,-123.2384193,43.85285684,Oregon,97402,261
Alewife Brewing Company,brewpub,514 51st Ave,Long Island City,New York,11101-5879,-73.95625257,40.74232214,New York,11101,263
Alibi Ale Works,micro,204 E Enterprise St,Incline Village,Nevada,89451-9456,-119.9537117,39.24819328,Nevada,89451,265
Align Brewing Co,micro,8680 Miralani Dr,San Diego,California,92126-6300,-117.137429,32.896584,California,92126,267
All Rise Brewing Co,brewpub,235 N Ashland Ave,Chicago,Illinois,60607-1401,-87.6667328,41.8864021,Illinois,60607,268
All-American Ale Works,micro,5120 E La Palma Ave Ste 103,Anaheim,California,92807-2082,-117.8056915,33.85925032,California,92807,270
Allagash Brewing Co,regional,50 Industrial Way,Portland,Maine,04103-1270,-70.3179518,43.7030951,Maine,04103,271
Allegheny City Brewing,micro,507 Foreland St,Pittsburgh,Pennsylvania,15212-4910,-80.00061073,40.45424933,Pennsylvania,15212,272
Allegory Brewing,micro,777 NE 4th St,McMinnville,Oregon,97128-4502,-123.1917806,45.21081917,Oregon,97128,273
Allentown Brew Works,brewpub,812 Hamilton St,Allentown,Pennsylvania,18101-2437,-75.4575021,40.6060468,Pennsylvania,18101,274
Alliance Brewing Company,micro,1130 Sevier Ave,Knoxville,Tennessee,37920,-83.9035469,35.9593516,Tennessee,37920,275
Alligator Brewing / Tall Paul's Brewhouse,micro,10 SE 2nd Ave,Gainesville,Florida,32601-6232,-82.3222523,29.6502615,Florida,32601,276
Alloy Brewing Company,micro,2700 Coon Rapids Blvd NW,Coon Rapids,Minnesota,55433-3955,-93.33543497,45.16953614,Minnesota,55433,277
Alltech's Lexington Brewing,regional,475 Angliana Ave,Lexington,Kentucky,40508-3134,-84.51599645,38.04950651,Kentucky,40508,278
Alluvial Brewing Company,micro,3715 W 190th St,Ames,Iowa,50014-9316,-93.6370387,41.5831617,Iowa,50014,279
Alma Brewing Co,brewpub,208 E Superior St,Alma,Michigan,48801-1819,-84.6588719,43.37888808,Michigan,48801,280
Alma Mader Brewing,micro,2635 Southwest Blvd,Kansas City,Missouri,64108,-94.599389,39.082495,Missouri,64108,281
Almanac Beer Company,micro,651B W Tower Ave,Alameda,California,94501-5047,-122.3062832,37.78344977,California,94501,282
Almost Famous Brewing Company,micro,17 Kripes Rd,East Granby,Connecticut,06026,-72.4224674,41.9581654,Connecticut,06026,283
Aloha Beer Co,brewpub,700 Queen St,Honolulu,Hawaii,96813-5110,-157.857248,21.301249,Hawaii,96813,284
Alosta Brewing Co,micro,692 Arrow Grand Cir,Covina,California,91722-2122,-117.8781466,34.10365026,California,91722,285
Alpenglow Beer Co,contract,,Lafayette,California,94549-4621,-122.1180201,37.8857582,California,94549,286
Alpha Acid Brewing Co,micro,121 Industrial Way Ste 12,Belmont,California,94002-8208,-122.2655717,37.52125155,California,94002,287
Alpha Brewing Co.,micro,4310 Fyler Ave,Saint Louis,Missouri,63116,-90.26236838,38.59861817,Missouri,63116,288
Alpine Beer Company,brewpub,6550 Mira Mesa Blvd,San Diego,California,92121-4100,-117.113975,32.9167796,California,92121,290
Alpine Brewing Co,micro,821 14th Ave,Oroville,Washington,98844,-119.4305306,48.9365877,Washington,98844,291
ALT Brew / Greenview Brewing LLC,brewpub,1808 Wright St,Madison,Wisconsin,53704-2522,-89.33026,43.12576305,Wisconsin,53704,293
Alta Brewing Company,micro,1983 Julian Avenue,San Diego,California,92113-1125,-117.1414712,32.7018758,California,92113,294
Altamont Beer Works,micro,2402 Research Dr,Livermore,California,94550-3850,-121.7210974,37.67839114,California,94550,295
Alternation Brewing Company,micro,1539 S Broadway,Denver,Colorado,80210-2607,-104.9876117,39.68866374,Colorado,80210,297
Altitude Chophouse and Brewery,brewpub,320 S 2nd St,Laramie,Wyoming,82070-3612,-105.5953366,41.31038565,Wyoming,82070,298
Altstadt Brewery,micro,6120 E US Highway 290,Fredericksburg,Texas,78624-2176,-98.8467263,30.2468574,Texas,78624,301
Alvarado Street Brewery,micro,1315 Dayton St Ste E,Salinas,California,93901-4400,-121.6305329,36.64880356,California,93901,302
Alvarado Street Brewery & Grill,brewpub,426 Alvarado St,Monterey,California,93940-2711,-121.8946096,36.59857755,California,93940,303
Amador Brewing Company,micro,9659 Main St,Plymouth,California,95669-9570,-120.849271,38.4808723,California,95669,305
Amani Brewing,brewpub,654 Ropp Dr,Martinsburg,West Virginia,25403-1533,-77.949602,39.5332966,West Virginia,25403,307
Ambacht Brewing,micro,1060 NE 25th Ave Ste B,Hillsboro,Oregon,97124-4903,-122.9564737,45.53275124,Oregon,97124,308
Amber Lantern Brewing Company,brewpub,44 N Main St,Warsaw,New York,14569-1326,-78.132363,42.7408423,New York,14569,309
Ambitious Ales,planning,,Long Beach,California,90807-2907,-118.1580493,33.78538945,California,90807,310
Amelia Island Brewing Company,brewpub,318 Centre St,Fernandina Beach,Florida,32034-4241,-81.46236272,30.67106045,Florida,32034,311
American Brewers Inc,micro,3408 Miller Rd,Kalamazoo,Michigan,49001-4111,-85.5378194,42.26671998,Michigan,49001,313
American Harvest Brewpub At Schoolcraft College,brewpub,18600 Haggerty Rd,Livonia,Michigan,48152-3932,-83.42868497,42.419317,Michigan,48152,315
American Honor Beer Co,contract,700 N Pennsylvania Ave,Wilkes Barre,Pennsylvania,18705-2451,-75.859363,41.254896,Pennsylvania,18705,316
American Icon Brewery,brewpub,1133 19th Place,Vero Beach,Florida,32960,-80.3955067,27.63674361,Florida,32960,317
American Solera,micro,1702 E 6th St,Tulsa,Oklahoma,74104,-95.9667403,36.1518928,Oklahoma,74104,318
Amerisports Brew Pub,brewpub,3200 Ameristar Dr,Kansas City,Missouri,64161,-94.484526,39.150682,Missouri,64161,320
Amherst Brewing Co / Hangar Pub and Grill,brewpub,10 University Dr,Amherst,Massachusetts,01002-2243,-72.5318418,42.3728635,Massachusetts,01002,321
Ammo Brewing,micro,235 N Market St,Petersburg,Virginia,23803-3207,-77.407177,37.230765,Virginia,23803,322
Amorys Tomb Brewing Co,micro,76 Main St,Maynard,Massachusetts,01754-2516,-71.45315644,42.43203845,Massachusetts,01754,323
Amplified Ale Works,brewpub,4150 Mission Blvd Ste 208,San Diego,California,92109-5054,-117.2511178,32.7719729,California,92109,324
Amplified Ale Works Miramar Studio,brewpub,9030 Kenamar Dr Ste 309,San Diego,California,92121-2432,-117.1570695,32.88687598,California,92121,325
Anacapa Brewing Co,brewpub,472 E Main St,Ventura,California,93001-2627,-119.2935874,34.28073347,California,93001,326
Anacortes Brewery/Rockfish Grill,brewpub,320 Commercial Ave,Anacortes,Washington,98221-1517,-122.6126089,48.51933431,Washington,98221,327
Anaheim Brewery,micro,336 S Anaheim Blvd,Anaheim,California,92805-3830,-117.9125249,33.8328226,California,92805,328
Ancestry Brewery,brewpub,20585 SW 115th Ave,Tualatin,Oregon,97062-6857,-122.7967838,45.3711546,Oregon,97062,330
Anchor Brewing Co,large,1705 Mariposa St,San Francisco,California,94107-2334,-122.4011065,37.7630772,California,94107,331
Anchorage Brewing Co,micro,148 W 91st Ave,Anchorage,Alaska,99515-1901,-149.8893581,61.1385311,Alaska,99515,332
Anderson Valley Brewing Co,regional,17700 CA-253,Boonville,California,95415,-123.3560542,39.00141731,California,95415,335
Andrews Brewing Co At Calaboose Cellars,micro,575 Aquone Rd,Andrews,North Carolina,28901-7004,-83.81487799,35.19958164,North Carolina,28901,337
Angel City Brewery,micro,216 S Alameda St,Los Angeles,California,90012-4201,-118.237715,34.04627065,California,90012,338
"Angry Chair Brewing, LLC.",micro,6401 N Florida Ave,Tampa,Florida,33604-6007,-82.459381,28.005127,Florida,33604,340
Angry Hank's Microbrewery,micro,20 N 30th St,Billings,Montana,59101-2140,-108.5076025,45.78022173,Montana,59101,343
Angry Horse Brewing,micro,603 W Whittier Blvd,Montebello,California,90640-5235,-118.1003743,34.0084152,California,90640,344
Angry Inch Brewing,micro,20841 Holyoke Ave,Lakeville,Minnesota,55044-,-93.2432718,44.6476022,Minnesota,55044,345
Angry James Brewing Co,micro,421 Adams Ave,Silverthorne,Colorado,80498,-106.0764637,39.63306895,Colorado,80498,346
"Angry Minnow, The",brewpub,10440 Florida Ave,Hayward,Wisconsin,54843-7112,-91.4887672,46.0104853,Wisconsin,54843,347
Angry Scotsman Brewing,contract,704 W Reno Ave,Oklahoma City,Oklahoma,73102-2434,-97.6002769,35.4644206,Oklahoma,73102,348
Anheuser-Busch InBev,large,1 Busch Pl,Saint Louis,Missouri,63118-1849,-90.2118998,38.5954536,Missouri,63118,350
Anheuser-Busch Inc - Fort Collins,large,2351 Busch Dr,Fort Collins,Colorado,80524-9400,-105.0019686,40.61817811,Colorado,80524,351
Anheuser-Busch Inc - Los Angeles,large,15800 Roscoe Blvd,Van Nuys,California,91406-1350,-118.4721072,34.2213918,California,91406,352
Anheuser-Busch Inc â Baldwinsville,large,2885 Belgium Rd,Baldwinsville,New York,13027-2706,-76.31159343,43.16510925,New York,13027,353
Anheuser-Busch Inc â Columbus,large,700 Schrock Rd,Columbus,Ohio,43229-1123,-82.99307,40.102197,Ohio,43229,355
Anheuser-Busch Inc â Fairfield,large,3101 Busch Dr,Fairfield,California,94534-9726,-122.0902992,38.2365838,California,94534,356
Anheuser-Busch Inc â Houston,large,775 Gellhorn Dr,Houston,Texas,77029-1496,-95.27130674,29.771858,Texas,77029,357
Anheuser-Busch Inc â Jacksonville,large,111 Busch Dr,Jacksonville,Florida,32218-5546,-81.6481156,30.4319552,Florida,32218,358
Anheuser-Busch Inc â Merrimack,large,221 Daniel Webster Hwy,Merrimack,New Hampshire,03054-4807,-71.48598162,42.8253635,New Hampshire,03054,359
Anheuser-Busch Inc ̢���� Williamsburg,large,7801 Pocahontas Trl,Williamsburg,Virginia,23185-6302,-76.6798988,37.2652889,Virginia,23185,361
Animas Brewing Co,brewpub,1560 E 2nd Ave,Durango,Colorado,81301-5186,-107.8769912,37.27997215,Colorado,81301,362
Anthem Brewing Co,micro,908 SW 4th St,Oklahoma City,Oklahoma,73109-1012,-97.5279236,35.46099673,Oklahoma,73109,364
Antiques on High,micro,714 S High St,Columbus,Ohio,43206,-82.99774,39.9476,Ohio,43206,366
Apex Aleworks Brew And BBQ Supplies,micro,4360 S Noland Rd,Independence,Missouri,64055-4741,-94.416872,39.041039,Missouri,64055,368
Apocalypse Ale Works,micro,1257 Burnbridge Rd,Forest,Virginia,24551-3803,-79.28917899,37.36302124,Virginia,24551,370
Apocalypse Brew Works,micro,1612 Mellwood Ave,Louisville,Kentucky,40206-1752,-85.72031443,38.2566442,Kentucky,40206,371
Appalachian Brewing Co - Harrisburg,brewpub,50 N Cameron St,Harrisburg,Pennsylvania,17101-2407,-76.8816961,40.291059,Pennsylvania,17101,374
Appalachian Brewing Co - Lititz,brewpub,55 N Water St,Lititz,Pennsylvania,17543-1612,-76.30100986,40.15827375,Pennsylvania,17543,375
Appalachian Mountain Brewery - Boone,micro,163 Boone Creek Dr,Boone,North Carolina,28607-7911,-81.668461,36.2033414,North Carolina,28607,377
Appalachian Mountain Brewery - Portsmouth,micro,1 Redhook Way,Portsmouth,New Hampshire,03801-6853,-70.8044602,43.087884,New Hampshire,03801,378
Apple Blossom Brewing Co,brewpub,1550 E Zion Rd,Fayetteville,Arkansas,72703-5017,-94.1372796,36.1297079,Arkansas,72703,379
Appleton Beer Factory,brewpub,603 W College Ave,Appleton,Wisconsin,54911-5803,-88.4139148,44.26173602,Wisconsin,54911,380
Apponaug Brewing,brewpub,334 Knight St,Warwick,Rhode Island,02886,-71.4691256,41.7265254,Rhode Island,02886,381
Aqueduct Brewing,micro,529 Grant St Ste 106,Akron,Ohio,44311-1184,-81.51788487,41.0698532,Ohio,44311,384
Arbor Brewing Co,brewpub,114 E Washington St,Ann Arbor,Michigan,48104-1905,-83.74822471,42.28041029,Michigan,48104,387
Arbor Brewing Co. Microbrewery,micro,720 Norris St,Ypsilanti,Michigan,48198-2825,-83.6099915,42.250158,Michigan,48198,388
Arcadia Brewing Co,micro,701 E Michigan Ave,Kalamazoo,Michigan,49007-4946,-85.5715368,42.2950789,Michigan,49007,389
Arcadian Moon,brewpub,19203 Old Highway 40,Higginsville,Missouri,64037,-93.773203,39.001467,Missouri,64037,390
Arcana Brewing Company,micro,5621 Palmer Way Ste C,Carlsbad,California,92010-7254,-117.273876,33.14038605,California,92010,391
Arch Rock Brewing Co,micro,28779 Hunter Creek Loop,Gold Beach,Oregon,97444-9626,-124.4155402,42.3898306,Oregon,97444,392
Archaic Craft Brewery At Centro,brewpub,140 E Main St,Tustin,California,92780-4408,-117.823173,33.7419754,California,92780,393
Arclight Brewing Company,micro,544 N Main St,Watervliet,Michigan,49098-9797,-86.25939238,42.19104832,Michigan,49098,396
Ardent Craft Ales,micro,3200 W Leigh St,Richmond,Virginia,23230-4410,-77.47201237,37.5684425,Virginia,23230,398
Argus Brewery,micro,11314 S Front Ave,Chicago,Illinois,60628-5007,-87.61206845,41.68854885,Illinois,60628,401
Argyle Brewing Company,micro,1 Main St,Greenwich,New York,12834-1209,-73.496758,43.08767125,New York,12834,402
Arkose Brewery,micro,650 E Steel Loop,Palmer,Alaska,99645-6689,-149.103408,61.582157,Alaska,99645,406
Arlington Club,micro,811 SW Salmon St,Portland,Oregon,97205-3094,-122.6818596,45.51786855,Oregon,97205,407
Armada Brewing,contract,250 Bradley Street,East Haven,Connecticut,06512,-72.87397563,41.29004301,Connecticut,06512,408
Armadillo Ale Works,micro,221 S Bell Ave,Denton,Texas,76201-4259,-97.12830051,33.21286666,Texas,76201,409
Armistice Brewing Company,micro,845 Marina Bay Pkwy Suite 1,Richmond,California,94804-6420,-122.348274,37.91966864,California,94804,410
"Armour Brewing Company, LLC",brewpub,721 Main St,Armour,South Dakota,57313-2122,-98.34450702,43.33084265,South Dakota,57313,411
Armstrong Brewing Co,micro,415 Grand Ave Ste 103,South San Francisco,California,94080-3614,-119.1925726,50.44703096,California,94080,412
Around the Bend Beer Co.,contract,811 N Oak Park Ave,Oak Park,Illinois,60302-1538,-87.79493034,41.90015593,Illinois,60302,413
Arrow Lodge Brewing,micro,720 E Arrow Hwy Ste C,Covina,California,91722-2103,-117.8767215,34.105251,California,91722,414
Arrowhead Ales Brewing Company,brewpub,2101 Calistoga Dr,New Lenox,Illinois,60451-4826,-87.95726941,41.48205844,Illinois,60451,415
Arrowood Farms,micro,236 Lower Whitfield Rd,Accord,New York,12404-5809,-74.24891742,41.80666144,New York,12404,416
Artifex Brewing Company,micro,919 Calle Amanecer Ste A,San Clemente,California,92673-6298,-117.6058963,33.44918353,California,92673,417
Artisan's Brewery & Italian Grill,brewpub,1171 Hooper Ave,Toms River,New Jersey,08753-8305,-74.1880387,39.9625642,New Jersey,08753,419
Arts District Brewing Company,brewpub,828 Traction Ave,Los Angeles,California,90013-1816,-118.2357029,34.04505443,California,90013,421
Arundel Cellars & Brewing Co,brewpub,11727 E Main Rd,North East,Pennsylvania,16428-3635,-79.8216539,42.2195527,Pennsylvania,16428,422
Arvon Brewing Co.,micro,3057 Broadway Ave SW,Grandville,Michigan,49418-1528,-85.7720434,42.909272,Michigan,49418,423
Asbury Park Brewery,micro,810 Sewall Ave,Asbury Park,New Jersey,07712-6527,-74.01229282,40.21956661,New Jersey,07712,424
Ascension Brewing Company,brewpub,42000 Grand River Ave,Novi,Michigan,48375-1831,-83.4609783,42.4783271,Michigan,48375,425
Asgard Brewing Company,micro,104 E 5th St,Columbia,Tennessee,38401-3351,-87.03329688,35.6174542,Tennessee,38401,426
Ashby Brewing Company,micro,109 Main St,Ashby,Minnesota,56309-4687,-95.81621756,46.09300639,Minnesota,56309,427
Asheville Brewing Co,brewpub,77 Coxe Ave,Asheville,North Carolina,28801-3621,-82.55530545,35.5917763,North Carolina,28801,429
Ashtown Brewing Co,micro,1145 11th Ave,Longview,Washington,98632,-122.9330459,46.13507657,Washington,98632,430
Ashuelot Brewing Company,micro,101 Old County Rd,Richmond,New Hampshire,03470-4918,-72.23236816,42.75946232,New Hampshire,03470,431
Aslan Brewing Company,micro,1330 N Forest St,Bellingham,Washington,98225-4702,-122.4754509,48.74801531,Washington,98225,432
Aslan Brewing Seattle,micro,401 N 36th St Ste 102,Seattle,Washington,98103-8630,-122.354134,47.652201,Washington,98103,433
Aspen Brewing Company,micro,404 Aspen Airport Business Ctr,Aspen,Colorado,81611-3530,-106.8597747,39.22153402,Colorado,81611,435
Aspetuck Brew Lab,micro,3389 Fairfield Avenue,Bridgeport,Connecticut,06605,-73.2357109,41.1544649,Connecticut,06605,436
Assembly brewing,planning,,Portland,Oregon,97206-3739,-122.6003912,45.491048,Oregon,97206,438
Astoria Brewing Company,micro,1196 Marine Dr,Astoria,Oregon,97103-4112,-123.831516,46.18980259,Oregon,97103,440
Asylum Brewing,micro,2970 E. La Palma Ave. Suite D,Anaheim,California,92806,-117.8612062,33.84988007,California,92806,444
At Ease Brewing,planning,,Sacramento,California,95811-3003,-121.4943996,38.5815719,California,95811,445
At Large Brewing,micro,2730 W Marine View Dr,Everett,Washington,98201-3421,-122.2146867,47.9808918,Washington,98201,446
Atco Brewing LLC,micro,302 White Horse Pike,Atco,New Jersey,08004-2209,-74.89973165,39.77167345,New Jersey,08004,447
Athens Brewing Co,brewpub,101 E Tyler St,Athens,Texas,75751-2547,-95.852642,32.205458,Texas,75751,448
Converge Brewing Company,planning,,Paso Robles,California,93446-8360,-120.6912456,35.6267654,California,93446,452
Atlantic Brewing Co / Bar Harbor Brewing,brewpub,52 Cottage Street Bar Harbor,Bar Harbor,Maine,04609,-68.20607075,44.389488,Maine,04609,453
Atom Brewing Company,micro,654 Moffat St,Erie,Colorado,80516,-105.0542327,40.0488359,Colorado,80516,455
Atomic Ale Brewpub and Eatery,brewpub,1015 Lee Blvd,Richland,Washington,99352-4226,-119.2782003,46.27475515,Washington,99352,456
Atwater Brewing Co,regional,237 Joseph Campau St,Detroit,Michigan,48207-4107,-83.072904,42.4190883,Michigan,48207,460
Atwater Grand Rapids,brewpub,201 Michigan St NW,Grand Rapids,Michigan,49503-2323,-85.672454,42.970463,Michigan,49503,461
Atwater In the Park Biergarten and Tap House,brewpub,1175 Lakepointe St,Grosse Pointe Park,Michigan,48230-1319,-82.9399103,42.3814617,Michigan,48230,462
Atwood Ales,micro,4012 Sweet Rd,Blaine,Washington,98230-9108,-122.6990459,48.97900614,Washington,98230,463
Atypical Brewery & Barrelworks,micro,510 Central Ave E,Minot,North Dakota,58701-4056,-101.2854035,48.23634956,North Dakota,58701,464
Auburn Alehouse,brewpub,289 Washington St,Auburn,California,95603-5036,-121.0789583,38.89612107,California,95603,465
Audacious Aleworks,micro,110 E Fairfax St,Falls Church,Virginia,22046,-77.17234359,38.88076482,Virginia,22046,467
Audacity Brewing,micro,1208 10th St Ste C,Snohomish,Washington,98290,-122.0966776,47.925023,Washington,98290,468
Augusta Brewing Co,brewpub,109 W Main St,Washington,Missouri,63090-2191,-91.01173472,38.56026935,Missouri,63090,470
Augustino Brewing,brewpub,756 N Tyler Rd,Wichita,Kansas,67212-3617,-97.44431468,37.69517328,Kansas,67212,471
Aurochs Brewing Company,micro,8321 Ohio River Blvd,Pittsburgh,Pennsylvania,15202-1451,-80.0221567,40.4488158,Pennsylvania,15202,472
Austin Beerworks,regional,3001 Industrial Ter,Austin,Texas,78758-7609,-97.72984444,30.3795705,Texas,78758,475
Austin Brothers' Beer Company,brewpub,821 W Miller St,Alpena,Michigan,49707-1825,-83.43583578,45.07296998,Michigan,49707,476
Automatic Brewing Co. / Blind Lady Alehouse,brewpub,3416 Adams Ave,San Diego,California,92116-2428,-117.120151,32.763588,California,92116,478
Avalanche Brewing Co,brewpub,1067 Blair St,Silverton,Colorado,81433-0377,-107.664791,37.8098899,Colorado,81433,479
Avant Garde Aleworks,micro,920 Dunraven St,Estes Park,Colorado,80517,-105.5085669,40.3728533,Colorado,80517,480
Avery Brewing Co,regional,4910 Nautilus Ct N,Boulder,Colorado,80301-3242,-105.2047652,40.0625835,Colorado,80301,481
Aviator Brewing Company,regional,209 Technology Park Ln,Fuquay Varina,North Carolina,27526-9311,-78.8073896,35.61695983,North Carolina,27526,482
Avondale Brewing Co,micro,201 41st St S,Birmingham,Alabama,35222-1932,-86.774322,33.524521,Alabama,35222,483
Axle Brewing Company,micro,567 Livernois St,Ferndale,Michigan,48220-2303,-83.1428144,42.4508021,Michigan,48220,485
Aztec Brewing Company,micro,2330 La Mirada Dr Ste 300,Vista,California,92081-7871,-117.2297606,33.14984395,California,92081,486
B and J's Handcrafted Texas Ales,micro,6335 S Padre Island Dr,Corpus Christi,Texas,78412-4013,-97.2962784,27.6749936,Texas,78412,487
B.O.B's Brewery,brewpub,20 Monroe Ave NW,Grand Rapids,Michigan,49503-6208,-85.67248446,42.9638257,Michigan,49503,492
Babe's Bar-B-Que and Brewhouse,brewpub,71800 Highway 111 Ste A176,Rancho Mirage,California,92270-4495,-116.4110483,33.74096746,California,92270,496
Bacchus Brewing,micro,15 Ellis Dr,Dryden,New York,13053-9630,-76.29904171,42.49966971,New York,13053,497
Back Alley Brewing Co,micro,211 S Main St,Goshen,Indiana,46526-3722,-85.83457862,41.58461971,Indiana,46526,498
Back Bay Brewing Company,micro,614 Norfolk Ave,Virginia Beach,Virginia,23451-4419,-75.97974414,36.83778371,Virginia,23451,499
Back Channel Brewing,micro,4787 Shoreline Dr,Spring Park,Minnesota,55384-9713,-93.64430718,44.93673794,Minnesota,55384,500
Back Forty Beer Co,micro,200 N 6th St,Gadsden,Alabama,35901-3361,-86.005006,34.016888,Alabama,35901,503
Back Pedal Brewing Company,micro,1425 NW Flanders St,Portland,Oregon,97209-2620,-122.6856562,45.52597595,Oregon,97209,504
Back Road Brewery,micro,308 Perry St,La Porte,Indiana,46350-3216,-86.72649137,41.6118882,Indiana,46350,506
Back Street Brewery & Tasting Room,micro,1884 S Santa Cruz St,Anaheim,California,92805-6726,-117.8960894,33.79983678,California,92805,507
Back Unturned Brewing Co.,micro,516 Brooklyn Ave,San Antonio,Texas,78215,-98.4867139,29.4330983,Texas,78215,508
Backcountry Brewing,micro,3250 Mecca Dr,Plover,Wisconsin,54467,-89.5413643,44.3304949,Wisconsin,54467,510
Backpocket Brewing Co,micro,903 Quarry Rd,Coralville,Iowa,52241-2208,-91.55981337,41.68139484,Iowa,52241,513
BackRoad Brewery,micro,90 School St,Carlisle,Iowa,50047,-93.48531767,41.498501,Iowa,50047,514
Backside Brewing Co,brewpub,1640 NE Odell Ave,Roseburg,Oregon,97470-3320,-123.3377881,43.21449839,Oregon,97470,517
Backspace Brewing,micro,200 Walnut St,Yankton,South Dakota,57078-4343,-97.393642,42.86878841,South Dakota,57078,519
Backstep Brewing Company,micro,125 N Green St,Crawfordsville,Indiana,47933-1708,-86.89998607,40.04207712,Indiana,47933,520
Backswing Brewing Co.,micro,500 W South St Ste 8,Lincoln,Nebraska,68522-1744,-96.7274091,40.7922193,Nebraska,68522,522
Backwoods Brewing Company - Production Only,micro,1162 B Wind River Hwy,Carson,Washington,98610,-121.8203754,45.72872253,Washington,98610,524
Backwoods in the Gorge,micro,1162 Wind River Hwy,Carson,Washington,98610,-121.8203754,45.72872253,Washington,98610,525
Backyard Brewery,brewpub,1211 S Mammoth Rd,Manchester,New Hampshire,03109-5101,-71.4134598,42.93534925,New Hampshire,03109,527
BAD Brewing Co,micro,440 S Jefferson St,Mason,Michigan,48854-1654,-84.4433383,42.5786176,Michigan,48854,529
Bad Bulldogs Brewery,closed,941 N Callow Ave,Bremerton,Washington,98312,-122.6533736,47.56963921,Washington,98312,530
Bad Jimmy's Brewing Co,micro,4358B Leary Way NW,Seattle,Washington,98107-4554,-122.3653569,47.66133224,Washington,98107,534
Bad Lab Beer Co.,brewpub,460 High St,Somersworth,New Hampshire,03878-1012,-70.88353777,43.22651432,New Hampshire,03878,535
Bad Martha Farmer's Brewery,brewpub,270 Upper Main St,Edgartown,Massachusetts,02539-,-70.52732,41.394402,Massachusetts,02539,536
Bad Shepherd Beer Company,brewpub,702 Quarrier St,Charleston,West Virginia,25301-2627,-81.63612015,38.35094943,West Virginia,25301,537
Bad Tom Smith Brewing,micro,4720 Eastern Ave,Cincinnati,Ohio,45226-1893,-84.41803086,39.11995755,Ohio,45226,538
Bad Tom Smith Brewing,brewpub,1836 W 25th St,Cleveland,Ohio,44113-3142,-81.7051638,41.4861772,Ohio,44113,539
Bad Water Brewing,contract,4216 N Brown Ave,Scottsdale,Arizona,85251-3914,-111.9244743,33.49726157,Arizona,85251,540
Bad Weather Brewing LLC,micro,414 7th St W,Saint Paul,Minnesota,55102-2733,-93.1655001,44.9040455,Minnesota,55102,541
Badass Backyard Brewing,micro,1415 N Argonne Rd,Spokane Valley,Washington,99212-2685,-117.282919,47.66990394,Washington,99212,542
Badger Mountain Brewing,micro,1 Orondo Ave,Wenatchee,Washington,98801-2206,-120.309353,47.423747,Washington,98801,544
Badger State Brewing Company,micro,990 Tony Canadeo Run,Green Bay,Wisconsin,54304-3762,-88.05136473,44.49669718,Wisconsin,54304,545
BADSONS Beer Co,micro,251 Roosevelt Dr,Derby,Connecticut,06418-1665,-73.1322771,41.3513647,Connecticut,06418,546
BadWolf Brewing Company,micro,9776 Center St,Manassas,Virginia,20110-4128,-77.48972051,38.75356183,Virginia,20110,548
Baerlic Brewing Co,micro,2235 SE 11th Ave,Portland,Oregon,97214-5303,-122.6550828,45.50680595,Oregon,97214,550
Baffin Brewing Co,micro,25113 Jefferson Ave,Saint Clair Shores,Michigan,48081-2303,-82.888964,42.472227,Michigan,48081,551
Bagby Beer Company,brewpub,601 S Coast Hwy,Oceanside,California,92054-4120,-117.373847,33.189591,California,92054,553
"Baileson Brewing Company, LLC",micro,2322 Bissonnet St,Houston,Texas,77005-1512,-95.41337465,29.72562404,Texas,77005,554
Bainbridge Brewing,micro,9415 Coppertop Loop NE Ste 104,Bainbridge Island,Washington,98110-3339,-122.5251446,47.64937373,Washington,98110,555
Bainbridge Brewing Alehouse,brewpub,500 Winslow Way E #110,Bainbridge Island,Washington,98110,-122.5145398,47.62624505,Washington,98110,556
Baker City Brewing Co,micro,2200 Main Street,Baker City,Oregon,97814,-117.8293471,44.77928865,Oregon,97814,558
BAKFISH Brewing Company,micro,1231 Broadway St,Pearland,Texas,77581-6303,-95.4174149,29.5551351,Texas,77581,559
Bald Top Brewing Company,micro,1830 Thrift Rd,Madison,Virginia,22727-2843,-78.2625296,38.3772921,Virginia,22727,561
Bale Breaker Brewing Company,regional,1801 Birchfield Rd,Yakima,Washington,98901-9577,-120.435573,46.57685541,Washington,98901,562
Baleen Brewing Co.,micro,884 Mizzen Ln #9462,Ketchikan,Alaska,99901,-131.817681,55.472907,Alaska,99901,563
Ballad Brewing,micro,600 Craghead St,Danville,Virginia,24541-1504,-79.386371,36.584786,Virginia,24541,564
Ballast Point Brewing Co / Home Brew Mart,large,5401 Linda Vista Rd Ste 406,San Diego,California,92110-2402,-117.1953344,32.76692137,California,92110,565
Ballast Point Brewing Company,planning,,Anaheim,California,92802-2294,-117.911732,33.8347516,California,92802,566
Ballast Point Brewing Company,large,110 N Marina Dr,Long Beach,California,90803-4601,-118.114751,33.7464176,California,90803,567
Ballast Point Brewing Company,large,9045 Carroll Way,San Diego,California,92121-2405,-117.1587251,32.88798083,California,92121,568
Ballast Point Brewing Company,large,7606 Trade St,San Diego,California,92121-2405,-117.157081,32.889641,California,92121,569
Ballast Point Brewing Company,large,555 International Pkwy,Daleville,Virginia,24083-3028,-79.91380298,37.43575624,Virginia,24083,571
Ballast Point Brewing Company - Little Italy,large,2215 India St,San Diego,California,92101-1725,-117.169738,32.727777,California,92101,572
Balsam Falls Brewing,micro,506 W Main St,Sylva,North Carolina,28779-5544,-83.2218237,35.3737065,North Carolina,28779,573
Balter Beerworks,brewpub,100 S Broadway St,Knoxville,Tennessee,37902-1901,-83.92432,35.96654,Tennessee,37902,574
Bam Entertainment Center,brewpub,478 E 16th St,Holland,Michigan,49423-3793,-86.08555156,42.7812873,Michigan,49423,576
Band Of Bohemia,brewpub,4710 N Ravenswood Ave,Chicago,Illinois,60640-4408,-87.6750827,41.9675954,Illinois,60640,577
Band of Brothers Brewing Company,micro,1605 23rd Ave,Tuscaloosa,Alabama,35401-4653,-87.56215513,33.19849071,Alabama,35401,578
Banded Oak Brewing Company,brewpub,470 N Broadway,Denver,Colorado,80203-3404,-104.9874187,39.7282897,Colorado,80203,580
Bandon Brewing Company,brewpub,395 2nd St SE,Bandon,Oregon,97411-9605,-124.4122494,43.1191572,Oregon,97411,583
Bandwagon Brewery,micro,3582 West Ave,Interlaken,New York,14847,-76.7278241,42.61661956,New York,14847,584
Bang the Drum Brewery,micro,950 Orcutt Rd,San Luis Obispo,California,93401-6740,-120.6452338,35.2615498,California,93401,586
Bank Brewing Co,micro,218 N Main St,Hendricks,Minnesota,56136-9501,-96.42581655,44.50839827,Minnesota,56136,592
Bankhead Brewing Company,brewpub,3840 Main St,Rowlett,Texas,75088-5073,-96.56610883,32.9029137,Texas,75088,593
Banning's Inc,micro,620 Water St,Summersville,West Virginia,26651-1453,-80.85147552,38.281623,West Virginia,26651,594
Bar 3 BBQ and Brewing,brewpub,100 S Broadway,Belgrade,Montana,59714-3909,-111.1770268,45.7751537,Montana,59714,595
Bar D Brew House,brewpub,213 N High St,San Saba,Texas,76877-3533,-98.71854917,31.19678472,Texas,76877,596
Bar Hygge / Brewery Techne,brewpub,1720 Fairmount Ave,Philadelphia,Pennsylvania,19130-2858,-75.16567302,39.96707286,Pennsylvania,19130,597
Baranof Island Brewing Co,closed,1209 Sawmill Creek Rd Ste A,Sitka,Alaska,99835-9759,-135.309951,57.049586,Alaska,99835,598
Barbarian Brewing - Downtown Taproom,micro,1022 W Main St,Boise,Idaho,83702-5705,-116.206883,43.618407,Idaho,83702,599
Barbarian Brewing - Garden City,micro,5270 W Chinden Blvd,Garden City,Idaho,83714-1457,-116.272141,43.646318,Idaho,83714,600
Bardic Brewing and Cider,micro,15412 E Sprague Ave #14,Spokane Valley,Washington,99037,-117.1984519,47.65665159,Washington,99037,602
Bardo Brewpub,micro,25 Potomac Ave SE,Washington,District of Columbia,20003-3670,-77.00658302,38.87165373,District of Columbia,20003,603
Bardwell Winery and Brewery,micro,716 N High St,Mount Orab,Ohio,45154,-83.9209789,39.0419795,Ohio,45154,604
Bare Arms Brewing,micro,2515 La Salle Ave,Waco,Texas,76706-3929,-97.13081959,31.52488462,Texas,76706,605
Bare Bones Brewery,brewpub,4362 County Rd S,Oshkosh,Wisconsin,54904-9575,-88.59075354,44.07856457,Wisconsin,54904,606
Barebottle Brewing Company,micro,1525 Cortland Ave,San Francisco,California,94110-5714,-122.4090405,37.74000915,California,94110,608
BareWolf Brewing,micro,12 Oakland St,Amesbury,Massachusetts,01913,-70.92336518,42.85606929,Massachusetts,01913,609
Barhop Brewing,brewpub,124 W Railroad Ave,Port Angeles,Washington,98362-2621,-123.4332787,48.12098065,Washington,98362,610
Bark Brewing Company,brewpub,3021 Spring Garden St,Greensboro,North Carolina,27403-1968,-79.84360434,36.06201036,North Carolina,27403,611
BarkEater Craft Brewery,proprietor,5411 Shady Ave,Lowville,New York,13367-1601,-75.4867252,43.7874658,New York,13367,612
Barking Armadillo Brewing,micro,507 River Bend,Georgetown,Texas,78723-3342,-97.6932487,30.6608114,Texas,78723,613
Barley and Hops Grill,brewpub,5473 Urbana Pike,Frederick,Maryland,21704-7275,-77.3995969,39.38204685,Maryland,21704,615
Barley Brothers Brewery,brewpub,1425 McCulloch Blvd N,Lake Havasu City,Arizona,86403-6597,-114.3206399,34.4770677,Arizona,86403,617
Barley Browns Brewpub,micro,2190 Main St,Baker City,Oregon,97814-2655,-117.8294962,44.7787802,Oregon,97814,618
Barley Creek Brewing Co,brewpub,1774 Sullivan Trl,Tannersville,Pennsylvania,18372-7893,-75.32890575,41.05236395,Pennsylvania,18372,619
Barley Forge Brewing,closed,2957 Randolph Ave Ste B,Costa Mesa,California,92626-4375,-117.8880183,33.67903294,California,92626,620
Barley Johns Brewpub,brewpub,781 Old Highway 8 SW,New Brighton,Minnesota,55112-7735,-93.1984831,45.0366982,Minnesota,55112,623
Barley Sprouts Brewery,brewpub,639 SE 223rd Ave,Gresham,Oregon,97030-2509,-122.4339039,45.51805087,Oregon,97030,626
Barley's Brewing Company (Ale House No. 1),brewpub,467 N High St,Columbus,Ohio,43215-2007,-83.0027669,39.9719408,Ohio,43215,627
Barlows Brewery,micro,705 SE Park Crest Ave Suite D430,Vancouver,Washington,98683,-122.5216242,45.6177956,Washington,98683,629
BarmHaus Brewing Co,closed,3782 Winding Creek Ln,Garden Valley,California,95633-9773,-120.8784951,38.8402775,California,95633,630
Barn Brewers,brewpub,114 N Main St,Lawton,Michigan,49065-8634,-85.84966443,42.16834814,Michigan,49065,631
Barn Brewery,micro,2850 El Cajon Blvd Ste 3,San Diego,California,92104-1389,-117.1324165,32.75568723,California,92104,632
Barn Door Brewing,micro,1174 SW Highway 99W,Dundee,Oregon,97115,-123.0146104,45.27424538,Oregon,97115,633
Barn Town Brewing Co.,brewpub,9500 SE University Ave #1110,West Des Moines,Iowa,50266-1888,-93.8385143,41.5996472,Iowa,50266,634
Barnaby Brewing Company,micro,165 Shattuck Way,Juneau,Alaska,99801,-134.405962,58.300314,Alaska,99801,635
Barnshed Brewing,micro,100 Lauman Ln,Hicksville,New York,11801-6574,-73.50094256,40.74420335,New York,11801,638
Barnstable Brewing,micro,485 W Main St,Hyannis,Massachusetts,02601-3644,-70.31159594,41.64913517,Massachusetts,02601,639
Barrel 41 Brewing Co,brewpub,1132 S. Commercial St.,Neenah,Wisconsin,54956,-88.4642861,44.16805,Wisconsin,54956,642
Barrel and Beam,micro,260 Northwoods RD,Marquette,Michigan,49855,-87.4722168,46.54578,Michigan,49855,643
"Barrel Brothers Brewing Company, LLC",micro,399 Business Park Ct. #506,Windsor,California,95492,-122.784706,38.52824916,California,95492,645
Barrel Culture Brewing And Blending,proprietor,4913 S Alston Ave,Durham,North Carolina,27713-4424,-78.88891655,35.89445737,North Carolina,27713,646
Barrel Dog Brewing,micro,,Evergreen,Colorado,80439,-105.321458,39.6361637,Colorado,80439,647
Barrel Harbor Brewing Co.,micro,2575 Pioneer Ave Ste 104,Vista,California,92081-8450,-117.221385,33.14879,California,92081,648
Barrel Head Brewhouse,brewpub,1785 Fulton St,San Francisco,California,94117-1202,-122.4461033,37.77576514,California,94117,649
Barrel Mountain Brewing,micro,607 E Main St,Battle Ground,Washington,98604-4887,-122.5309307,45.7808639,Washington,98604,651
Barrel Theory Beer Company,micro,248 7th St E,Saint Paul,Minnesota,55101-2349,-93.08803482,44.95106551,Minnesota,55101,654
Barreled Souls Brewing Company LLC,micro,743 Portland Rd,Saco,Maine,04072-9005,-70.405728,43.553358,Maine,04072,655
Barrelhouse Brewing,micro,3055 Limestone Way,Paso Robles,California,93446-5988,-120.6911529,35.5762216,California,93446,656
Barrels & Bottles Brewery,brewpub,600 12th St Ste 160,Golden,Colorado,80401-6145,-105.2202098,39.7562107,Colorado,80401,657
Barrio Brewing Co,micro,800 E 16th St,Tucson,Arizona,85719-6603,-110.959665,32.214613,Arizona,85719,660
Barrow Brewing Company,micro,108 Royal St,Salado,Texas,76571,-97.53703133,30.94295989,Texas,76571,661
Barsideous Brewing Co,brewpub,644 S Main St,Lebanon,Oregon,97355-3337,-122.9070824,44.5247777,Oregon,97355,662
Bartlett Hall,brewpub,242 Ofarrell St,San Francisco,California,94102-2119,-122.4087293,37.78640638,California,94102,663
Bascule Brewery And Public House,micro,1397 Colorado Ave,Lorain,Ohio,44052-3377,-82.15710792,41.46560548,Ohio,44052,664
Base Camp Brewing Co,micro,930 SE Oak St,Portland,Oregon,97214-1307,-122.6561108,45.5198818,Oregon,97214,665
Basement Brewers of Texas,micro,521 Clay St,Kerrville,Texas,78028-4525,-99.1392822,30.05042839,Texas,78028,666
Basic City Beer Co.,micro,1010 E Main St,Waynesboro,Virginia,22980-5855,-78.87398588,38.0644451,Virginia,22980,667
Basket Case Brewing Co,brewpub,1340 Mill St,Jasper,Indiana,47546-2310,-86.92850063,38.39736355,Indiana,47546,669
Bastard Brothers Brewing Company,micro,2114 Penta Dr,High Ridge,Missouri,63049-2684,-90.503349,38.48282,Missouri,63049,670
Bastion Brewing Company,brewpub,12529 Christianson Rd,Anacortes,Washington,98221-8682,-122.5708729,48.46080506,Washington,98221,672
Bastone Brewery,brewpub,419 S Main St,Royal Oak,Michigan,48067-2615,-83.1440578,42.4836283,Michigan,48067,673
Batch Brewing Co,brewpub,1400 Porter St,Detroit,Michigan,48216-1934,-83.088689,42.3184806,Michigan,48216,674
Bath Brewing Company,brewpub,141 Front St,Bath,Maine,04530,-69.81414593,43.91408541,Maine,04530,676
Bathtub Row Brewing Co-op,micro,163 Central Park Sq,Los Alamos,New Mexico,87544-4029,-106.3007594,35.8839054,New Mexico,87544,677
Battered Boar Brewing Co,micro,14700 Metro Plaza Blvd Ste F,Edmond,Oklahoma,73013-1991,-97.50849,35.619996,Oklahoma,73013,678
Battle Hill Brewing Company,micro,4 Charles Street,Fort Ann,New York,12827,-73.48739346,43.41676935,New York,12827,681
Battle Road Brewing Co,micro,5 Clock Tower Pl,Maynard,Massachusetts,01754-2530,-71.45416113,42.43001225,Massachusetts,01754,682
Battlemage Brewing Co,micro,2870 Scott St Ste 102,Vista,California,92081-8556,-117.227634,33.140153,California,92081,686
Bauhaus Brew Labs,micro,1315 Tyler St NE,Minneapolis,Minnesota,55413-1530,-93.237365,45.042082,Minnesota,55413,687
Bavarian Bierhaus,brewpub,700 W Lexington Blvd,Glendale,Wisconsin,53217-4912,-87.91923009,43.11415845,Wisconsin,53217,688
Bavarian Brothers Brewing,brewpub,164 Shepherd Grade Rd,Shepherdstown,West Virginia,25443-4601,-77.804886,39.436699,West Virginia,25443,689
Bawden Street Brewing Company,micro,325 Bawden St,Ketchikan,Alaska,99901,-131.644822,55.34321,Alaska,99901,690
"Baxter Brewing Co, LLC",regional,130 Mill St,Lewiston,Maine,04240-7774,-70.219607,44.09567728,Maine,04240,691
Bay Bridge Brewing Co,micro,688 Marsat Ct Ste B,Chula Vista,California,91911-4697,-117.0830312,32.601264,California,91911,693
Bay City Brewing Co.,micro,3760 Hancock St,San Diego,California,92110,-117.2117833,32.7580759,California,92110,694
Bayern Brewing Inc.,micro,1507 Montana St,Missoula,Montana,59801-1409,-114.0202088,46.8725952,Montana,59801,696
BDD Brewing Company,micro,1147 Falls Rd Ste 107,Rocky Mount,North Carolina,27804,-77.80208267,35.958026,North Carolina,27804,700
Beach Cat Brewing,micro,7876 Birch Bay Dr #101,Blaine,Washington,98230,-122.7447863,48.92831088,Washington,98230,701
Beach Chalet Brewing Co,brewpub,1000 Great Hwy,San Francisco,California,94121-3268,-122.502981,37.7252994,California,94121,702
Beach Grease Beer Company,micro,1280 Activity Dr Ste B,Vista,California,92081,-117.219665,33.14225042,California,92081,703
Beach Haus Brewery,micro,801 Main St,Belmar,New Jersey,07719-2705,-74.0251959,40.1812131,New Jersey,07719,704
Beachside Brew Pub,micro,1368 Ocean Shore Blvd,Ormond Beach,Florida,32176-3630,-81.057048,29.326634,Florida,32176,706
Beachwood BBQ & Brewing,brewpub,210 E 3rd St Ste A,Long Beach,California,90802-3197,-118.1909007,33.77017138,California,90802,707
Beachwood Blendery,micro,247 Long Beach Blvd,Long Beach,California,90802-3136,-118.1894715,33.77015096,California,90802,708
Beachwood Brewing,micro,7631 Woodwind Dr Ste B,Huntington Beach,California,92647-7117,-117.9953281,33.70446704,California,92647,709
Beale's,brewpub,510 Grove St,Bedford,Virginia,24523,-79.51785,37.33585,Virginia,24523,711
Bear Bones Beer,micro,43 Lisbon St,Lewiston,Maine,04240-7115,-70.09605519,44.02012732,Maine,04240,714
Bear Island Brewing Company,micro,1620 N Liberty St,Boise,Idaho,83704-7739,-116.260854,43.620592,Idaho,83704,717
Bear Republic Brewing Co,regional,345 Healdsburg Ave,Healdsburg,California,95448-4105,-122.8713046,38.6110317,California,95448,718
Bear Republic Brewing Co - Production facility,regional,110 Sandholm Ln Ste 10,Cloverdale,California,95425-4439,-123.0108285,38.78169817,California,95425,719
Bear Republic Brewing Co Pub & Restaurant - Lakeside,brewpub,5000 Roberts Lake Rd,Rohnert Park,California,94928,-122.7101405,38.3649703,California,94928,720
Bear Roots Brewing Company,micro,1213 S Santa Fe Ave,Vista,California,92083-7230,-117.226238,33.188251,California,92083,721
Beara Brewing Co.,micro,2800 Lafayette Rd,Portsmouth,New Hampshire,03801-5915,-70.790732,43.027935,New Hampshire,03801,722
Beard Engine Brewing Co,micro,208 Main St,Alba,Missouri,64830,-94.418276,37.248046,Missouri,64830,723
Bearded Iris Brewing,micro,101 Van Buren St,Nashville,Tennessee,37208-1719,-86.786174,36.181424,Tennessee,37208,725
Beards Brewery,brewpub,215 E Lake St,Petoskey,Michigan,49770-2415,-84.95425838,45.37533801,Michigan,49770,727
Beards Brewery Production Facility,micro,6328 Ferry Ave,Charlevoix,Michigan,49720-9504,-85.249116,45.304738,Michigan,49720,728
Beardslee Public House,brewpub,19116 Beardslee Blvd Ste 201,Bothell,Washington,98011-0202,-122.1914046,47.7663209,Washington,98011,729
Bearpaw River Brewing Co,micro,4605 E Palmer Wasilla Hwy,Wasilla,Alaska,99654-7679,-149.4127103,61.5752695,Alaska,99654,730
BearWaters Brewing Co,brewpub,101 Park St,Canton,North Carolina,28716-4319,-82.843001,35.53137,North Carolina,28716,731
Beaver Beer Co,contract,307 Greens Farms Rd,Westport,Connecticut,06880-6227,-73.311685,41.12587,Connecticut,06880,732
Beaver Brewery At Mo's Place,brewpub,1908 Elm St,Beaver,Kansas,67525-9231,-98.667933,38.639049,Kansas,67525,733
Beaver Brewing Co,brewpub,1820 7th Ave,Beaver Falls,Pennsylvania,15010-4001,-80.3192793,40.7650557,Pennsylvania,15010,734
Beaver Island Brewing Company,micro,216 6th Ave S,Saint Cloud,Minnesota,56301-4304,-94.15733312,45.5585455,Minnesota,56301,736
Beaverhead Brewing Co,micro,218 S Montana St,Dillon,Montana,59725-2438,-112.6396875,45.21575351,Montana,59725,738
Beavers Bend Brewery,micro,46 Coho Rd,Broken Bow,Oklahoma,74728-6765,-94.7595504,34.1658072,Oklahoma,74728,739
Bedlam Brewing LLC,brewpub,2303 N Augusta St,Staunton,Virginia,24401-2597,-79.05582568,38.16800319,Virginia,24401,740
Bee's Knees Ale House,brewpub,106 W Jasper St,Versailles,Missouri,65084,-92.835774,38.479374,Missouri,65084,741
Beech Mountain Brewing Company,micro,1007 Beech Mountain Pkwy,Beech Mountain,North Carolina,28604-8018,-81.873356,36.16819584,North Carolina,28604,742
Beehive Basin Brewery,micro,245 Town Center Ave,Big Sky,Montana,59716,-111.3037009,45.259632,Montana,59716,743
Beer By Design Brewery,contract,11490 Jackson St,Thornton,Colorado,80233-2533,-104.9417886,39.9285623,Colorado,80233,745
Beer Church Brewing Company,contract,24 S Whittaker St,New Buffalo,Michigan,49117-1820,-86.74311848,41.79322148,Michigan,49117,746
Beer Engine,micro,107 Larrimore Ln,Danville,Kentucky,40422-1674,-84.771328,37.6481,Kentucky,40422,747
Beer Is Good Brewing Company,micro,216 E Main,Norman,Oklahoma,73069,-97.4411294,35.2216069,Oklahoma,73069,749
Beer Lab HI,micro,1010 University Ave Ste B1,Honolulu,Hawaii,96826-1537,-157.8218784,21.29214406,Hawaii,96826,750
Beer On Earth,micro,425 W Fountain St #104,Providence,Rhode Island,02903,-71.4238514,41.8189698,Rhode Island,02903,752
Beer Valley Brewing Co,micro,937 SE 12th Ave,Ontario,Oregon,97914-4473,-116.9539806,44.01504307,Oregon,97914,756
Beerded Brothers Brewing,closed,106 W 6th St,Vancouver,Washington,98660,-122.6718911,45.62576802,Washington,98660,757
Belching Beaver Brewery,regional,1334 Rocky Point Dr,Oceanside,California,92056-5864,-117.292416,33.2139275,California,92056,760
Belching Beaver Brewery Tavern & Grill,brewpub,302 E Broadway,Vista,California,92084-6020,-117.241029,33.2021182,California,92084,761
Belching Beaver Brewery Vista,micro,980 Park Center Dr Ste A,Vista,California,92081-8351,-117.2410328,33.20215305,California,92081,762
Belfast Bay Brewing Co,contract,100 Searsport Ave,Belfast,Maine,04915-7221,-68.9880177,44.4309432,Maine,04915,764
Belgian Mare Brewery,micro,207 Gilsum Mine Rd,Alstead,New Hampshire,03602-3915,-72.28542213,43.10984838,New Hampshire,03602,766
Bell's Eccentric Cafe,brewpub,355 E Kalamazoo Ave,Kalamazoo,Michigan,49007-3807,-85.57887292,42.29491555,Michigan,49007,768
Bella Casa Di Vino,brewpub,201 N Riverside Ave,Saint Clair,Michigan,48079-5491,-82.48591,42.823895,Michigan,48079,769
Belle Isle Restaurant and Brewing Co,brewpub,1900 NW Expressway Ste 44,Oklahoma City,Oklahoma,73118-1832,-97.545912,35.522258,Oklahoma,73118,770
Bellevue Brewing Co,brewpub,1820 130th Ave NE # 2,Bellevue,Washington,98005-2205,-122.1669306,47.62658069,Washington,98005,772
Belltown Brewery,closed,200 Bell St,Seattle,Washington,98121-1716,-122.3456669,47.6142953,Washington,98121,774
Bellwether Brewing Co,micro,2019 N Monroe St,Spokane,Washington,99205-4542,-117.4265497,47.67645574,Washington,99205,775
Belly Love Brewing Company,brewpub,725 E Main St,Purcellville,Virginia,20132-3178,-77.7015903,39.1364247,Virginia,20132,776
Belmont Brewing Co,brewpub,25 39th Pl,Long Beach,California,90803-2806,-118.1480454,33.759551,California,90803,778
Below the Radar Brewing Co,brewpub,220 Holmes Ave NE,Huntsville,Alabama,35801-4837,-86.58583931,34.73272365,Alabama,35801,779
Beltway Brewing Company,micro,22620 Davis Dr Ste 110,Sterling,Virginia,20164-4470,-77.4172876,38.9914289,Virginia,20164,780
Bemidji Brewing Company,brewpub,211 America Ave NW,Bemidji,Minnesota,56601-3176,-94.88482747,47.4699022,Minnesota,56601,781
Ben's Brewing Station,micro,719 Walnut Street,Yankton,South Dakota,57078-3542,-97.39428007,42.8771861,South Dakota,57078,782
Ben's Tune-Up / Ben's Beer,brewpub,195 Hilliard Ave,Asheville,North Carolina,28801-3616,-82.5557931,35.5912756,North Carolina,28801,783
Benchmark Brewing Co,closed,6190 Fairmount Ave Ste G,San Diego,California,92120-3428,-117.1020694,32.78737066,California,92120,784
Benchtop Brewing Company,micro,1129 Boissevain Ave,Norfolk,Virginia,23507-1401,-76.30742245,36.86493389,Virginia,23507,785
Bend Brewing Co,brewpub,1019 NW Brooks St,Bend,Oregon,97703-2018,-121.3139312,44.06051115,Oregon,97703,786
Bend Brewing High Desert,closed,20650 NE High Desert Lane,Bend,Oregon,97701,-121.2914842,44.08727607,Oregon,97701,787
Benjamin Beer Co,micro,507 6th St,Racine,Wisconsin,53403-1117,-87.78630172,42.72641512,Wisconsin,53403,790
Bennidito's Brewpub,brewpub,1909 E Sprague Ave,Spokane,Washington,99202-3120,-117.2178526,47.6571208,Washington,99202,791
Benoit-Casper Brewing,micro,1201 Pennsylvania Ave Ste E,Richmond,California,94801-2300,-122.3578637,37.94244029,California,94801,793
Benson Brewery,brewpub,6059 Maple St,Omaha,Nebraska,68104-4050,-96.00634511,41.28489756,Nebraska,68104,794
Bent Bine Brew Co. LLC,brewpub,23297 WA-3,Belfair,Washington,98394,-122.83223,47.445115,Washington,98394,795
Bent Brewstillery,micro,1744 Terrace Dr,Roseville,Minnesota,55113-1315,-93.17364906,45.02557829,Minnesota,55113,796
Bent Kettle Brewing Company,micro,1507 Montclair Pl,Fort Atkinson,Wisconsin,53538-3102,-88.861232,42.9348495,Wisconsin,53538,798
Bent Paddle Brewing Co,regional,1912 W Michigan St,Duluth,Minnesota,55806-2135,-92.1219171,46.7676912,Minnesota,55806,799
Bent River Brewing Co,brewpub,1413 5th Ave,Moline,Illinois,61265-1335,-90.51736337,41.50590516,Illinois,61265,800
Bent River Brewing Co,brewpub,500 Jefferson St,Burlington,Iowa,52601,-91.1052085,40.8106128,Iowa,52601,801
Bent River Brewing Co Production & Tasting Room,micro,512 24th St,Rock Island,Illinois,61201-8928,-90.5669283,41.5076339,Illinois,61201,802
Bent Shovel Brewing,micro,21678 S Latourette Rd,Oregon City,Oregon,97045-9453,-122.421183,45.37878928,Oregon,97045,804
Bent Shovel Brewing,micro,20179 S Springwater Rd,Oregon City,Oregon,97023,-122.3922913,45.31388797,Oregon,97023,805
Bentonville Brewing Co,micro,1700 S 1st St,Rogers,Arkansas,72756-5923,-94.1178372,36.3168272,Arkansas,72756,807
Berkeley Springs Brewing Co,brewpub,110 Michigan Ln,Berkeley Springs,West Virginia,25411-3008,-78.271156,39.576782,West Virginia,25411,809
Berkshire Brewing Co Inc,regional,12 Railroad St,South Deerfield,Massachusetts,01373-0096,-72.61025086,42.47779797,Massachusetts,01373,811
Berlin Brewing Company,micro,220 S White Horse Pike,Berlin,New Jersey,08009-1902,-74.92998973,39.79199228,New Jersey,08009,812
Berryessa Brewing Co,micro,27260 State Highway 128,Winters,California,95694-9066,-122.0032197,38.51383288,California,95694,813
Bertrams Salmon Valley Brewery,brewpub,535 Main St,Salmon,Idaho,83467-4246,-113.8932079,45.1751978,Idaho,83467,815
Berts Brewing Co.,planning,,Orange,California,92867-6942,-117.8704931,33.7500378,California,92867,816
Berwick Brewing Co,brewpub,328 W Front St,Berwick,Pennsylvania,18603-4757,-76.2381632,41.05243327,Pennsylvania,18603,817
Best of Hands Barrelhouse,micro,7500 35th Ave SW,Seattle,Washington,98126,-122.3763875,47.53628883,Washington,98126,819
Bevel Craft Brewing,planning,,Bend,Oregon,97701-4924,-121.2917516,44.04614868,Oregon,97701,821
Bewilder Brewing Co,brewpub,445 S 400 W,Salt Lake City,Utah,84101-2202,-111.9017072,40.7594039,Utah,84101,822
Bhramari Brewhouse,micro,101 S Lexington Ave,Asheville,North Carolina,28801-3309,-82.55191879,35.59166763,North Carolina,28801,824
Bickerson's Brewhouse,micro,4710 NE 4th St #C105,Renton,Washington,98059,-122.1555405,47.48904979,Washington,98059,826
Bier One Brewing,brewpub,424 SW Coast Hwy,Newport,Oregon,97365-4930,-124.0572864,44.6330765,Oregon,97365,829
Biercamp,brewpub,1643 S State St,Ann Arbor,Michigan,48104-4302,-83.740111,42.2586786,Michigan,48104,830
Bierly Brewing @ Eats and Treats,brewpub,1644 Main St,Philomath,Oregon,97370-9237,-123.3625416,44.539936,Oregon,97370,832
Bierstadt Lagerhaus,brewpub,2875 Blake St,Denver,Colorado,80205-2210,-104.9838084,39.7630094,Colorado,80205,833
BierWerks,brewpub,121 E. Midland Ave,Woodland Park,Colorado,80863,-105.0519462,38.9941414,Colorado,80863,834
Big Axe Brewing Company,brewpub,25435 Main St,Nisswa,Minnesota,56468-5001,-94.2891095,46.5199477,Minnesota,56468,837
Big Barn Brewing Co / Bodacious Berries Fruits and Brews,micro,16004 N Applewood Ln,Mead,Washington,99021-7818,-117.266079,47.80652793,Washington,99021,838
Big Beach Brewing Company,micro,300 E 24th Ave,Gulf Shores,Alabama,36542-3104,-87.683039,30.278051,Alabama,36542,839
Big Bear Brewing Co,brewpub,1800 N University Dr,Coral Springs,Florida,33071-6031,-80.2505088,26.2992083,Florida,33071,840
Big Bear Lake Brewing Co,brewpub,40827 Stone Rd,Big Bear Lake,California,92315,-116.9110287,34.2425583,California,92315,841
Big Bear Mountain Brewery,brewpub,40260 Big Bear Blvd,Big Bear Lake,California,92315,-116.923042,34.23876062,California,92315,842
Big Block Brewing,micro,3310 E Lake Sammamish Pkwy SE,Sammamish,Washington,98075,-122.07474,47.57926212,Washington,98075,845
Big Block Brewing - Redmond Taproom,micro,14950 NE 95th St,Redmond,Washington,98052,-122.1410868,47.68654123,Washington,98052,846
Big Blue Brewing,brewpub,4721 SE 10th Pl,Cape Coral,Florida,33904-9168,-81.95242639,26.56445895,Florida,33904,847
Big Boiler Brewing,brewpub,318 E Main St,Lowell,Michigan,49331-1714,-85.33655351,42.93462931,Michigan,49331,848
Big Cat Brewing Company,brewpub,8699 S Good Harbor Trl,Cedar,Michigan,49621-8580,-85.79311511,44.85319287,Michigan,49621,851
Big Choice Brewing Co,micro,21 S 1st Ave,Brighton,Colorado,80601-1603,-104.822433,39.98642943,Colorado,80601,852
Big Ditch Brewing Company,micro,55 E Huron St,Buffalo,New York,14203-1632,-78.8709352,42.888031,New York,14203,854
Big Draft Brewing,micro,697 Main St E,White Sulphur Springs,West Virginia,24986-3003,-80.3001175,37.7945598,West Virginia,24986,856
Big Elm Brewing,micro,65 Silver St,Sheffield,Massachusetts,01257,-73.351236,42.093595,Massachusetts,01257,857
Big Frog Brewing Company,micro,2122 Dayton Blvd,Red Bank,Tennessee,37415-6414,-85.31017603,35.0916037,Tennessee,37415,858
Big Grove Brewery,micro,1225 S Gilbert St,Iowa City,Iowa,52240-4507,-91.53189828,41.64713299,Iowa,52240,859
Big Grove Brewery & Tap Room,brewpub,1225 S Gilbert St,Iowa City,Iowa,52240-4507,-91.53189828,41.64713299,Iowa,52240,860
Big Head Brewing Co.,micro,6204 W State St,Milwaukee,Wisconsin,53213-2906,-87.9201437,43.0429687,Wisconsin,53213,862
Big Horse Brewpub,brewpub,115 State St,Hood River,Oregon,97031-2315,-121.5120956,45.7079528,Oregon,97031,863
Big Island Brewhaus,brewpub,64-1066 Mamalahoa Hwy Unit 5,Kamuela,Hawaii,96743-7309,-155.661471,20.025552,Hawaii,96743,865
Big Lake Brewing,micro,13 W 7th St,Holland,Michigan,49423-2821,-86.10791587,42.79149405,Michigan,49423,866
Big Lake Brewing Production Facility,micro,166 E 19th St,Holland,Michigan,49423-4230,-86.09988824,42.78029471,Michigan,49423,867
Big Lick Brewing Company,micro,409 Salem Ave SW,Roanoke,Virginia,24016,-79.94873144,37.2724144,Virginia,24016,869
Big Lost Meadery and Brewery,micro,106 S Gillette Ave,Gillette,Wyoming,82716,-105.5046114,44.2866583,Wyoming,82716,870
Big Lug Canteen,brewpub,1435 E 86th St,Indianapolis,Indiana,46240-1911,-86.079957,39.912628,Indiana,46240,871
Big Muddy Brewing Co,micro,1430 N 7th St,Murphysboro,Illinois,62966-3938,-89.33204055,37.78182292,Illinois,62966,872
Big Rack Brew Haus,micro,2475 Hiatt Apple Trl,Winterset,Iowa,50273-8113,-93.923386,41.286503,Iowa,50273,873
Big Rip Brewing Company,micro,216 E 9th Ave,North Kansas City,Missouri,64116-4315,-94.57786,39.1261133,Missouri,64116,874
Big River Grille & Brewing Works - Chattanooga,brewpub,222 Broad St,Chattanooga,Tennessee,37402-1009,-85.31070875,35.05387554,Tennessee,37402,876
Big Rock Chop House & Brewery,contract,245 S Eton St,Birmingham,Michigan,48009-6577,-83.19603911,42.54693868,Michigan,48009,878
Big Sexy Brewing Company,micro,5861 88th St Ste 800,Sacramento,California,95828-1131,-121.3757237,38.52149864,California,95828,879
Big Sky Brewing Co,regional,5417 Trumpeter Way,Missoula,Montana,59808-8680,-114.0730248,46.9224156,Montana,59808,881
Big Slide Brewery,brewpub,5686 Cascade Road,Lake Placid,New York,12946,-73.96977615,44.26461237,New York,12946,882
Big Storm Brewing,micro,839 Miramar St,Cape Coral,Florida,33904-9046,-81.9557454,26.5609342,Florida,33904,883
Big Storm Brewing,micro,2330 Success Dr,Odessa,Florida,33556,-82.62618762,28.19192178,Florida,33556,884
Big Stump Brewing Company,micro,1716 L St,Sacramento,California,95811-4024,-121.4263334,38.68887875,California,95811,886
Big Thompson Brewery,micro,114 E 15th St,Loveland,Colorado,80538-3832,-105.0746687,40.40811243,Colorado,80538,888
Big Timber Brewing,micro,1210 S Davis Ave,Elkins,West Virginia,26241-3437,-79.85143109,38.91765609,West Virginia,26241,890
Big Time Brewery,brewpub,4133 University Way NE,Seattle,Washington,98105-6213,-122.3135759,47.65785225,Washington,98105,891
Big Tupper Brewing,brewpub,12 Cliff Ave,Tupper Lake,New York,12986-1719,-74.46576367,44.223293,New York,12986,894
Big Ugly Brewing Co,micro,1296 Battlefield Blvd S,Chesapeake,Virginia,23322-4378,-76.22847989,36.67862015,Virginia,23322,895
Big Water Brewery,micro,24 Robie Rd,Salisbury,New Hampshire,03268-5423,-71.717004,43.409129,New Hampshire,03268,896
Big Woods Brewery,brewpub,2222 4th Street,White Bear Lake,Minnesota,55110,-93.007108,45.08530367,Minnesota,55110,898
Big's BBQ Brewpub,brewpub,124 2nd Ave NW,Mount Vernon,Iowa,52314,-91.41772002,41.92299939,Iowa,52314,899
Bigelow Brewing Company,brewpub,473 Bigelow Hill Rd,Skowhegan,Maine,04976-5126,-69.72961613,44.71991967,Maine,04976,900
Bike Dog Brewing Co,micro,2534 Industrial Blvd Ste 110,West Sacramento,California,95691-3471,-121.5433734,38.5660851,California,95691,901
Bike Rack Brewing Co - 8th Street Market,micro,801 SE 8th St,Bentonville,Arkansas,72712-6409,-94.200584,36.364069,Arkansas,72712,903
Bike TrAle Brewing,micro,101 Loudoun St SE,Leesburg,Virginia,20175-3106,-77.562422,39.113418,Virginia,20175,904
Bilbo's Pizza and Brewery,brewpub,3307 Stadium Dr,Kalamazoo,Michigan,49008-1528,-85.63122494,42.27160225,Michigan,49008,906
Bill's Brewing Co.,brewpub,4238 Market St.,Wilmington,North Carolina,28403,-77.892361,34.242224,North Carolina,28403,907
Bill's Front Porch Pub and Brewery,brewpub,4238 Market St,Wilmington,North Carolina,28403-1409,-77.892361,34.242224,North Carolina,28403,908
Bill's Tavern and Brewhouse,brewpub,188 N Hemlock St,Cannon Beach,Oregon,97110-3037,-123.9610943,45.89803615,Oregon,97110,909
Billsburg Brewery,micro,2054 Jamestown Rd,Williamsburg,Virginia,23185-7911,-76.7129558,37.2682365,Virginia,23185,910
Biloxi Brewing Co,micro,186 Bohn St,Biloxi,Mississippi,39530-3812,-88.89361913,30.3982915,Mississippi,39530,912
Bine Valley Brewing,micro,2027 25th St SE,Salem,Oregon,97302-1130,-123.0104248,44.92083964,Oregon,97302,914
Binghamton Brewing Co,micro,15 Avenue B,Johnson City,New York,13790-2234,-75.95337584,42.11473563,New York,13790,915
Birch's On the Lake,brewpub,1310 Wayzata Blvd,Long Lake,Minnesota,55356-8314,-93.55601814,44.98493915,Minnesota,55356,917
Bircus Brewing,micro,322 Elm St,Ludlow,Kentucky,41016-1451,-84.54923129,39.0935089,Kentucky,41016,918
Bird Brain Brewing Company,contract,435 Nikki Ter SE,Leesburg,Virginia,20175-8962,-77.54348368,39.09389489,Virginia,20175,919
Bird Street Brewing,micro,242 Heinlen St,Lemoore,California,93245-2947,-119.784711,36.30146756,California,93245,921
Birdboy Brewing Co,micro,210 E Collins Rd,Fort Wayne,Indiana,46825-5304,-85.13900142,41.12187792,Indiana,46825,922
BirdFish Brewing Co,micro,16 S Main St,Columbiana,Ohio,44408-1348,-80.69353036,40.888487,Ohio,44408,923
Birdsong Brewing Co.,micro,1016 N Davidson St,Charlotte,North Carolina,28206-3371,-80.82704272,35.23060753,North Carolina,28206,925
BirdsView Brewing Co,micro,38302 State Route 20,Concrete,Washington,98237-9460,-121.7378167,48.5357818,Washington,98237,926
Birmingham District Brewing,planning,,Birmingham,Alabama,35242-5651,-86.8024326,33.5206824,Alabama,35242,927
Birravino,brewpub,183 Riverside Ave,Red Bank,New Jersey,07701-1015,-74.07536238,40.35352565,New Jersey,07701,928
Birreria @ Eataly,brewpub,43 E Ohio St,Chicago,Illinois,60611-2701,-87.6262332,41.89209845,Illinois,60611,929
Birthright Brewing Co.,brewpub,57 S Main St,Nazareth,Pennsylvania,18064-2037,-75.31224579,40.74211365,Pennsylvania,18064,931
Bismarck Brewing,brewpub,1100 Canada Ave Suite 1,Bismarck,North Dakota,58503-1814,-100.7737552,46.86270313,North Dakota,58503,933
Bison Brewing Co,contract,1627 S 7th St,San Jose,California,95112-5932,-121.8665257,37.31531409,California,95112,934
Bissell Brothers Brewing,micro,4 Thompsons Pt Ste 108,Portland,Maine,04102-2639,-70.2904097,43.6514062,Maine,04102,935
Bistronomy B2B Craft Brewery,brewpub,3118 Central Ave SE,Albuquerque,New Mexico,87106-2216,-106.6102147,35.080354,New Mexico,87106,936
Bitter Brothers Brewing Co.,micro,4170 Morena Blvd Ste F,San Diego,California,92117-5252,-117.2202906,32.81614831,California,92117,937
Bitter Creek Brewing Co,brewpub,604 Broadway St,Rock Springs,Wyoming,82901-6348,-109.2181243,41.58683904,Wyoming,82901,938
Bitter Old Fecker Rustic Ales,micro,12855 E Old US Hwy 12,Chelsea,Michigan,48118-9229,-83.98452281,42.2995379,Michigan,48118,939
Bitter Root Brewing Co,micro,101 Marcus St,Hamilton,Montana,59840-2541,-114.1551946,46.24733778,Montana,59840,940
Bitter Sisters Brewing Company,micro,15103 Surveyor Blvd,Addison,Texas,75001-4316,-96.845846,32.951222,Texas,75001,941
"Bittersweet Brewing Company, LLC",micro,191 S Oak Park Blvd Ste 3,Grover Beach,California,93433-2265,-120.6088596,35.12009944,California,93433,942
BJ's Brewhouse,regional,602 E Central Ave,Temple,Texas,76501-4319,-97.33525536,31.09509964,Texas,76501,943
BJs Restaurant & Brewery - Boulder,brewpub,1690 28th St,Boulder,Colorado,80301-,-105.258512,40.0291592,Colorado,80301,944
BJs Restaurant & Brewery - Brea,brewpub,600 Brea Mall Dr,Brea,California,92821-5764,-117.8863245,33.9152037,California,92821,945
BJs Restaurant & Brewery - Chandler,brewpub,3155 W Chandler Blvd,Chandler,Arizona,85226-5175,-111.911126,33.3053455,Arizona,85226,946
BJs Restaurant & Brewery - Reno,brewpub,13999 S Virginia St,Reno,Nevada,89511-8917,-119.8122668,39.5244083,Nevada,89511,947
BJs Restaurant & Brewery - West Covina,brewpub,2917 E Eastland Ctr Dr,West Covina,California,91791-1603,-117.8867988,34.07298952,California,91791,948
BJs Restauraunt & Brewhouse,brewpub,4502 S. Steele St. Suite 1500,Tacoma,Washington,98409,-122.467515,47.214875,Washington,98409,949
BKS Artisan Ales,micro,633 E 63rd St #120,Kansas City,Missouri,64110,-94.493961,39.010093,Missouri,64110,950
BlÃ¼ Dragonfly Brewing,brewpub,301 E 9th St # C,Cimarron,New Mexico,87714-4027,-104.914428,36.511427,New Mexico,87714,951
Black Acre Brewing Co,brewpub,5632 E Washington St,Indianapolis,Indiana,46219-6428,-86.1452662,39.7668669,Indiana,46219,952
Black Beak Brewing,planning,,Denver,Colorado,80237-1907,-104.984696,39.7391428,Colorado,80237,953
Black Bridge Brewery,micro,421 E Beale St,Kingman,Arizona,86401-5833,-114.051737,35.1895877,Arizona,86401,956
Black Cat Brewing,planning,,Boulder,Colorado,80302,-105.2705456,40.0149856,Colorado,80302,957
Black Circle Brewing Co,micro,2201 E 46th St,Indianapolis,Indiana,46205,-86.123944,39.8398813,Indiana,46205,958
Black Cloister Brewing Co,brewpub,619 Monroe St,Toledo,Ohio,43604-1015,-83.5399665,41.6499863,Ohio,43604,959
Black Cock Brewing Company,micro,1444 N Batavia St,Orange,California,92867-3505,-117.8620026,33.8274902,California,92867,960
Black Creek Brewery,micro,111 Depot St,Roxboro,North Carolina,27573-5503,-78.98146367,36.39362085,North Carolina,27573,961
Black Doubt Brewing Company,micro,"452 Old Mammoth Rd, #104",Mammoth Lakes,California,93546,-118.9668019,37.6395882,California,93546,962
Black Eagle Brewery,micro,1600 25th Ave NE,Black Eagle,Montana,59414-1070,-111.279526,47.528243,Montana,59414,963
Black Flag Brewing Company,micro,9315 Snowden River Pkwy,Columbia,Maryland,21046-2091,-76.810364,39.192524,Maryland,21046,965
Black Fleet Brewing,micro,2302 Fawcett Ave,Tacoma,Washington,98402,-122.44036,47.24082,Washington,98402,966
Black Forest Brew Haus,brewpub,2015 New Hwy,Farmingdale,New York,11735-1103,-73.41443291,40.7550515,New York,11735,967
Black Forest Brewery,brewpub,301 W Main St,Ephrata,Pennsylvania,17522-1713,-76.183579,40.181767,Pennsylvania,17522,968
Black Frog Brewing Co,micro,831 S McCord Rd,Holland,Ohio,43528-8746,-83.7032185,41.6171284,Ohio,43528,970
Black Gold Brewing Co,brewpub,508 Center St,Taft,California,93268-3109,-119.4591658,35.14109718,California,93268,971
Black Hammer Brewing,micro,544 Bryant St,San Francisco,California,94107-1217,-122.3969947,37.780655,California,94107,972
Black Hoof Brewing,micro,11 S King St,Leesburg,Virginia,20175-2903,-77.5648925,39.1150351,Virginia,20175,975
Black Husky Brewing LLC,micro,909 E Locust St,Milwaukee,Wisconsin,53212,-87.90008457,43.071024,Wisconsin,53212,978
Black Label Brewing Company,micro,19 W Main Ave,Spokane,Washington,99201-5124,-117.4114587,47.65900318,Washington,99201,979
Black Laboratory Breing,micro,1602 E Houston St Suite 109,San Antonio,Texas,78202,-98.4753507,29.4246556,Texas,78202,980
Black Leg Brewery,micro,24750 62nd Ave SE,McKenzie,North Dakota,58572-9649,-100.3978304,46.74842764,North Dakota,58572,981
Black Lotus Brewing Co,brewpub,1 E 14 Mile Rd,Clawson,Michigan,48017-2132,-83.141428,42.533563,Michigan,48017,982
Black Magic Brewing,planning,,Fountain Valley,California,92708-6431,-117.9627349,33.7038145,California,92708,983
Black Market Brewing Co,brewpub,41740 Enterprise Cir N Ste 109,Temecula,California,92590-5652,-117.1697859,33.5185138,California,92590,984
Black Mesa Brewing Company,micro,3901 N Flood Ave,Norman,Oklahoma,73069,-97.4819196,35.2761135,Oklahoma,73069,985
Black Narrows Brewing Company,micro,4522 Chicken City Rd,Chincoteague,Virginia,23336-2303,-75.36219281,37.93125647,Virginia,23336,986
Black Plague Brewing,micro,2550 Jason Ct,Oceanside,California,92056-3592,-117.266825,33.215571,California,92056,988
Black Pond Brews,micro,21A Furnace St,Danielson,Connecticut,06239-3040,-71.88394473,41.80470085,Connecticut,06239,989
Black Project Spontaneous & Wild Ales,micro,1290 S Broadway,Denver,Colorado,80210-1504,-104.9872018,39.6933607,Colorado,80210,990
Black Raven Brewing Co,micro,14679 NE 95th St,Redmond,Washington,98052-2556,-122.1455096,47.6854906,Washington,98052,991
Black Raven Brewing Co Woodinville,micro,15902 Woodinville-Redmond Rd NE,Woodinville,Washington,98072,-122.1554963,47.74343078,Washington,98072,992
Black Sands Brewery,micro,701 Haight St,San Francisco,California,94117-3316,-122.433863,37.7715719,California,94117,993
Black Shirt Brewing Co,brewpub,3719 Walnut St,Denver,Colorado,80205-2436,-104.9729604,39.7698142,Colorado,80205,994
Black Sky Brewery,brewpub,490 Santa Fe Dr,Denver,Colorado,80204-5024,-104.9983183,39.7239431,Colorado,80204,995
Black Star Co-op,brewpub,7020 Easy Wind Dr Ste 100,Austin,Texas,78752-2373,-97.718977,30.3383262,Texas,78752,996
Black Swan Brewpub,brewpub,2067 E Hadley Rd,Plainfield,Indiana,46168-7484,-86.374141,39.674729,Indiana,46168,997
Black Tooth Brewing Co,micro,312 Broadway St,Sheridan,Wyoming,82801-3917,-106.953506,44.80089512,Wyoming,82801,998
Black Walnut Brewery,micro,210 S King St,Leesburg,Virginia,20175-3010,-77.5649731,39.1127558,Virginia,20175,999
Black Warrior Brewing Co.,micro,2216 University Blvd,Tuscaloosa,Alabama,35401-1542,-87.565915,33.21061755,Alabama,35401,1000
Blackbeard's Brewing Company,brewpub,700 W Ocean Ave,Westport,Washington,98595-9603,-124.1175413,46.8867861,Washington,98595,1003
Blackberry Farm Brewery,micro,910 E Harper Ave,Maryville,Tennessee,37804-4023,-83.965755,35.762562,Tennessee,37804,1004
Blackfoot River Brewing Co,micro,66 S Park Ave,Helena,Montana,59601-6271,-112.0417121,46.5862933,Montana,59601,1005
Blackhorse Pub and Brewery,brewpub,132 Franklin St,Clarksville,Tennessee,37040-3438,-87.3588994,36.52735085,Tennessee,37040,1007
Blackhorse Pub and Brewery -  Knoxville,brewpub,4429 Kingston Pike,Knoxville,Tennessee,37919-5252,-84.0443634,35.9259722,Tennessee,37919,1008
Blacklist Artisan Ales,micro,120 E Superior St,Duluth,Minnesota,55802-2116,-92.09596598,46.7882669,Minnesota,55802,1009
BlackRock Brewers,micro,1664 S Research Loop Ste 200,Tucson,Arizona,85710-6767,-110.8217786,32.20160831,Arizona,85710,1010
Blackrocks Brewery,micro,424 N 3rd St,Marquette,Michigan,49855-3555,-87.39462133,46.5464589,Michigan,49855,1011
Blackrocks Brewery - Production Facility,micro,950 W Washington St,Marquette,Michigan,49855-4019,-87.41368794,46.54594024,Michigan,49855,1012
Blacksmith Brewing Co,micro,114 Main St,Stevensville,Montana,59870-2109,-114.0929303,46.51154971,Montana,59870,1013
Blackstone Brewing Co,micro,2312 Clifton Ave,Nashville,Tennessee,37209-4115,-86.80974363,36.15796783,Tennessee,37209,1015
Blackwater Brewing Co,micro,912 William Ave,Davis,West Virginia,26260-0356,-79.4695264,39.1274943,West Virginia,26260,1016
Blackwater Draw Brewing Company,brewpub,701 N Main,Bryan,Texas,77803,-96.35277742,30.6580876,Texas,77803,1017
Blaker Brewing,micro,1063 Montcalire Dr,Ceres,California,95307,-120.9797388,37.57642992,California,95307,1018
Blasty Bough Brewing Company,micro,3 Griffin Rd,Epsom,New Hampshire,03234-4816,-71.2932629,43.20382502,New Hampshire,03234,1021
Bleeding Heart Brewery,closed,1150 S Colony Way Ste 3 Pmb 618,Palmer,Alaska,99645-6972,-149.109799,61.601303,Alaska,99645,1023
Blewett Brewing Company,brewpub,911 Commercial St,Leavenworth,Washington,98826-1494,-120.6599479,47.59518806,Washington,98826,1024
"Blind Bat Brewery LLC, The",micro,420 Harrison Dr,Centerport,New York,11721-1216,-73.38113106,40.8959081,New York,11721,1025
Blind Pig Brewery,brewpub,120 N Neil St,Champaign,Illinois,61820-4023,-88.24341082,40.11714609,Illinois,61820,1027
Blind Tiger Brewery & Restaurant,brewpub,417 SW 37th St,Topeka,Kansas,66611-2354,-95.6846745,39.0002602,Kansas,66611,1029
Block 15,brewpub,300 SW Jefferson Ave,Corvallis,Oregon,97333-4607,-123.262222,44.5622701,Oregon,97333,1030
Block 15 Brewery & Tap Room,brewpub,3415 SW Deschutes St,Corvallis,Oregon,97333-9283,-123.269049,44.5305284,Oregon,97333,1031
Block Brewing Company,brewpub,1140 S Michigan Ave,Howell,Michigan,48843-2669,-83.931806,42.603858,Michigan,48843,1032
Bloom Brew,micro,100 Riverside Dr,West Newton,Pennsylvania,15089-1542,-79.768066,40.210228,Pennsylvania,15089,1033
Bloomington Brewing Co,brewpub,1795 E 10th St,Bloomington,Indiana,47407-6955,-86.51136673,39.1720504,Indiana,47407,1035
Blowing Rock Brewing Company,brewpub,152 Sunset Dr,Blowing Rock,North Carolina,28605-7205,-81.677229,36.1327196,North Carolina,28605,1037
Blue Blaze Brewing,micro,528 S Turner Ave,Charlotte,North Carolina,28208-4259,-80.86710843,35.24138809,North Carolina,28208,1038
Blue Blood Brewing Company,brewpub,925 Robbers Cave Rd,Lincoln,Nebraska,68502,-96.70701376,40.77999602,Nebraska,68502,1039
Blue Canoe Brewery,brewpub,113 S Franklin St,Titusville,Pennsylvania,16354-1737,-79.6733234,41.6230211,Pennsylvania,16354,1040
Blue Canoe Brewing Co,micro,1637 E. 15th Street,Little Rock,Arkansas,72202,-92.25366807,34.73235496,Arkansas,72202,1041
Blue Cat Brew Pub,brewpub,113 18th St,Rock Island,Illinois,61201-8708,-90.5145797,41.51094347,Illinois,61201,1042
"Blue Collar Brewery, Inc.",brewpub,40 Cottage St,Poughkeepsie,New York,12601-2015,-73.91831,41.707234,New York,12601,1043
Blue Cow Cafe/Big Rapids Brewing Co,brewpub,119 N Michigan Ave,Big Rapids,Michigan,49307-1401,-85.48211793,43.69871439,Michigan,49307,1045
Blue Earl Brewing Company,micro,210 Artisan Dr,Smyrna,Delaware,19977-3715,-75.62418056,39.28096844,Delaware,19977,1046
Blue Frog Brewing Company,micro,1740 Travis Blvd,Fairfield,California,94533-3431,-122.0600589,38.2585569,California,94533,1047
Blue Ghost Brewing Company,brewpub,125 Underwood Rd,Fletcher,North Carolina,28732-,-82.5305803,35.4368388,North Carolina,28732,1048
Blue Heron Brew Pub,brewpub,108 W 9th St,Marshfield,Wisconsin,54449-4111,-90.18148902,44.65938079,Wisconsin,54449,1049
Blue Line Brewery,brewpub,555 Lake Flower Ave,Saranac Lake,New York,12983-2465,-74.11766659,44.31358605,New York,12983,1052
Blue Moon Brewery,large,3750 Chestnut Pl,Denver,Colorado,80216-3632,-104.9769417,39.7735561,Colorado,80216,1053
Blue Mountain Pizza and Brew Pub,brewpub,55 N Main St,Weaverville,North Carolina,28787-6634,-82.55934457,35.70849553,North Carolina,28787,1056
Blue Nose Brewery,micro,6119 East Ave,Hodgkins,Illinois,60525-4126,-87.85833464,41.77904908,Illinois,60525,1057
Blue Note Brewing Company,micro,750 Dead Cat Aly,Woodland,California,95695-3435,-121.7712396,38.67803633,California,95695,1058
Blue Oak Brewing Co,micro,821 Cherry Ln,San Carlos,California,94070-3306,-122.2534864,37.51008173,California,94070,1059
Blue Owl Brewing,micro,2400 E Cesar Chavez St Ste 300,Austin,Texas,78702-4638,-97.7189581,30.2545583,Texas,78702,1060
Blue Pike Cantina,brewpub,152 S Water St,Marine City,Michigan,48039-1687,-82.49085669,42.71829576,Michigan,48039,1062
Blue Point Brewing,large,225 West Main St,Patchogue,New York,11772,-73.02103705,40.76644215,New York,11772,1063
Blue Point Brewing Co,large,161 River Ave,Patchogue,New York,11772-3304,-73.0216063,40.75913445,New York,11772,1064
Blue Ridge Brewing Co/Foothills Brewing,brewpub,308 Trade St,Greer,South Carolina,29651-3432,-82.2262648,34.9361559,South Carolina,29651,1065
Blue Skye Brewery,brewpub,116 N Santa Fe Ave,Salina,Kansas,67401-2614,-97.608998,38.84100296,Kansas,67401,1067
Blue Stallion Brewing Company,micro,610 W Third St,Lexington,Kentucky,40508-1243,-84.50136234,38.05710985,Kentucky,40508,1070
Blue Star Brewing Co,brewpub,1414 S Alamo St # 105,San Antonio,Texas,78210-1117,-98.49615307,29.40989569,Texas,78210,1071
Blue Tractor Brewing Co,brewpub,207 E Washington St,Ann Arbor,Michigan,48104-2007,-83.74704578,42.28052759,Michigan,48104,1072
Bluebird Brasserie,brewpub,13730 Ventura Blvd,Sherman Oaks,California,91423,-118.4365891,34.1489109,California,91423,1075
Bluebird Microcreamery and Brewery,micro,7415 Greenwood Ave N,Seattle,Washington,98103-5044,-122.355108,47.6826657,Washington,98103,1076
Bluebonnet Beer Co,micro,1700 Bryant Dr Ste 107,Round Rock,Texas,78664-3898,-97.645332,30.491657,Texas,78664,1077
Bluegrass Brewing Co - Brewpub,brewpub,300 W Main St,Louisville,Kentucky,40202-2945,-85.75508898,38.25620645,Kentucky,40202,1078
Bluejacket,brewpub,300 Tingey St SE,Washington,District of Columbia,20003-4625,-77.0006981,38.8750965,District of Columbia,20003,1079
Blues City Brewing Co,regional,5151 E Raines Rd,Memphis,Tennessee,38118-7026,-89.8874019,35.0350188,Tennessee,38118,1081
Bluestone Brewing Company,brewpub,18 Pitney St,Sayre,Pennsylvania,18840-2720,-76.54508776,41.99222929,Pennsylvania,18840,1082
BlueTarp Brewing Co,micro,731 E College Ave,Decatur,Georgia,30030-5365,-84.2835622,33.7740425,Georgia,30030,1083
Bluewater Brewing Co,micro,318 S Royal Ave,Florence,Alabama,35630-4810,-87.65970529,34.8041295,Alabama,35630,1084
Bluewood Brewing,micro,1821 Cherokee St,Saint Louis,Missouri,63118,-90.216631,38.601767,Missouri,63118,1085
BNS Brewing & Distilling Co.,closed,10960 Wheatlands Ave Ste 101,Santee,California,92071-5617,-116.9583418,32.84680335,California,92071,1087
Boat Town Brewing,micro,18146 Campground Rd,Phillipsburg,Missouri,65722-8122,-92.712765,37.59991,Missouri,65722,1089
Boathouse Brewery LLC,brewpub,47 E Sheridan St,Ely,Minnesota,55731-1289,-91.8656329,47.9034136,Minnesota,55731,1090
Boathouse Brothers Brewing Co,micro,16211 Main Avenue SE,Prior Lake,Minnesota,55372-2332,-93.42397083,44.71449616,Minnesota,55372,1091
Boatyard Brewing Co,micro,432 E Paterson St,Kalamazoo,Michigan,49007-2599,-85.578439,42.303203,Michigan,49007,1092
Bobcat Brewery & Cafe,brewpub,5 Main St,Bristol,Vermont,05443-1317,-73.07811204,44.13284975,Vermont,05443,1094
Bobtown Brewhouse & Grill,brewpub,220 W Main St,Roberts,Wisconsin,54023,-92.55599,44.983639,Wisconsin,54023,1095
Boese Brothers Brewing,micro,601 Gold Ave SW,Albuquerque,New Mexico,87102-3119,-106.654295,35.083957,New Mexico,87102,1097
Bog Brewing Company,micro,218 W King St,Saint Augustine,Florida,32084-4144,-81.3267969,29.8908994,Florida,32084,1098
Bog Iron Brewing Co,micro,33 W Main St,Norton,Massachusetts,02766-2711,-71.18849942,41.96658468,Massachusetts,02766,1099
Bohemian Brewery and Grill,micro,94 7200 S,Midvale,Utah,84047-1532,-111.894011,40.6206923,Utah,84047,1102
Boiler Brewing Company,micro,129 N 10th St Ste 8,Lincoln,Nebraska,68508-3633,-96.707404,40.814185,Nebraska,68508,1103
Boise Brewing,micro,521 W Broad St,Boise,Idaho,83702-7642,-116.203056,43.611778,Idaho,83702,1105
Bold City Brewery,micro,109 E Bay St,Jacksonville,Florida,32202-3414,-81.656519,30.326002,Florida,32202,1107
Bold Missy Brewery,brewpub,610 Anderson St,Charlotte,North Carolina,28205-1208,-80.796429,35.24960852,North Carolina,28205,1108
Bolero Snort Brewery,contract,65 Railroad Ave,Ridgefield Park,New Jersey,07660-1321,-74.02983351,40.86058569,New Jersey,07660,1109
Bolo Beer Co,micro,420 E 1st St,Valentine,Nebraska,69201-1904,-100.5457277,42.87204733,Nebraska,69201,1110
Bolt Brewery,brewpub,8179 Center St,La Mesa,California,91942-2907,-117.02043,32.771889,California,91942,1111
Bolton Beer Works,brewpub,100 Wattaquadock Hill Rd,Bolton,Massachusetts,01740-1238,-71.619812,42.430173,Massachusetts,01740,1112
Bolton Landing Brewing Co.,micro,4933 Lake Shore Dr,Bolton Landing,New York,12814-7757,-73.655636,43.555707,New York,12814,1113
Bombastic Brewing,contract,11100 N Airport Rd,Hayden,Idaho,83835,-116.8105485,47.772517,Idaho,83835,1115
Bombing Range Brewing Company,brewpub,2000 Logston Blvd Ste 126,Richland,Washington,99354-5330,-119.2999357,46.3204119,Washington,99354,1116
Bombs Away Beer Company,brewpub,9801 Acoma Rd SE,Albuquerque,New Mexico,87123-3301,-106.53905,35.070904,New Mexico,87123,1117
Bombshell Beer Company,micro,120 Quantum Dr,Holly Springs,North Carolina,27540-8861,-78.83588932,35.65841825,North Carolina,27540,1118
Bonaventure Brewing Co,brewpub,404 S Figueroa St Ste 418A,Los Angeles,California,90071-1797,-118.2562113,34.05314634,California,90071,1119
Bond Brothers Beer Company,micro,202 E Cedar St,Cary,North Carolina,27511-3440,-78.77797444,35.78798475,North Carolina,27511,1120
Bone Island Brewing,micro,1111 Eaton St,Key West,Florida,33040-6926,-81.79651464,24.56141707,Florida,33040,1122
Bone Up Brewing Co.,micro,38 Norman St,Everett,Massachusetts,02149-1932,-71.0663396,42.405551,Massachusetts,02149,1123
Bonesaw Brewing Co.,micro,570 Mullica Hill Road,Glassboro,New Jersey,08028,-75.1354598,39.7129747,New Jersey,08028,1124
Boneshire Brew Works,micro,7462 Derry St,Harrisburg,Pennsylvania,17111-5228,-76.8712077,40.2633825,Pennsylvania,17111,1125
Boneyard Beer Co,micro,37 NW Lake Pl Ste B,Bend,Oregon,97703-2971,-121.3080908,44.05412648,Oregon,97703,1126
Boneyard Beer Co,brewpub,1955 NE Division St,Bend,Oregon,97701,-121.3065353,44.07094734,Oregon,97701,1127
Bonfire Brewing,micro,127 W 2nd St,Eagle,Colorado,81631,-106.82826,39.65531966,Colorado,81631,1128
Bonn Place Brewing,micro,310 Taylor St,Bethlehem,Pennsylvania,18015,-75.3745048,40.6116536,Pennsylvania,18015,1130
Bonneville Brewery,micro,1641 N Main St,Tooele,Utah,84074-8023,-112.2978178,40.55980233,Utah,84074,1131
Bonsai Brewing Project,brewpub,549 Wisconsin Ave,Whitefish,Montana,59937-2127,-114.3406189,48.4214453,Montana,59937,1132
Boojum Brewing Company,micro,357 Dayton Dr,Waynesville,North Carolina,28786-6931,-82.99383657,35.52574804,North Carolina,28786,1133
Boom City Brewing,brewpub,317 Pine St,Williamsport,Pennsylvania,17701-6509,-77.00331232,41.24108564,Pennsylvania,17701,1136
Boom Island Brewing Company,micro,2014 Washington Ave North #300,Minneapolis,Minnesota,55411-2220,-93.2739955,44.9855585,Minnesota,55411,1137
Boomtown Brewery,micro,700 Jackson St,Los Angeles,California,90012-3443,-118.233179,34.0507711,California,90012,1138
BoomTown Brewery and Woodfire Grill,brewpub,531 E Howard St,Hibbing,Minnesota,55746-1713,-92.9355964,47.4276931,Minnesota,55746,1139
Boondocks Brewing,brewpub,302 S Jefferson Ave,West Jefferson,North Carolina,28694-,-81.49133567,36.39941459,North Carolina,28694,1140
Boondoggle Brewing,contract,553 Maple St,Wethersfield,Connecticut,06109-3732,-72.66458677,41.6838887,Connecticut,06109,1141
Boone Valley Brewing Co,micro,816 7th St,Boone,Iowa,50036-2818,-93.88096265,42.062643,Iowa,50036,1142
Booneshine Brewing Company,micro,465 Industrial Park Dr.,Boone,North Carolina,28607,-81.645208,36.222104,North Carolina,28607,1143
Boot N Flute Brewery / Guild Wurst Tavern,brewpub,53 2nd St,Coralville,Iowa,52241,-91.56271744,41.66788468,Iowa,52241,1144
Bootleg Brewers - Sandhills Brewing Company,brewpub,45145 829th Rd,Taylor,Nebraska,68879-8120,-99.4254083,41.8662836,Nebraska,68879,1146
Bootleggers Brewery,micro,130 S Highland Ave,Fullerton,California,92832-1803,-117.928591,33.87004,California,92832,1147
Bootleggers Brewery,micro,1100 E Truslow Ave,Fullerton,California,92831-4626,-117.9080095,33.86741253,California,92831,1148
"Boots Brewing Company, Inc.",micro,89 Public Sq,Watertown,New York,13601-2626,-75.90904644,43.97475173,New York,13601,1149
Bootstrap Brewing,micro,142 Pratt St,Longmont,Colorado,80501,-105.1062808,40.16140505,Colorado,80501,1150
Bootstrap Brewing Co,micro,6778 N 79th St,Niwot,Colorado,80503-7118,-105.1691581,40.09681247,Colorado,80503,1151
Booze Brothers Brewing Co.,brewpub,2545 Progress St,Vista,California,92081-8483,-117.218025,33.148212,California,92081,1152
Border Brewing Company,micro,406 E 18th St,Kansas City,Missouri,64108,-94.5786142,39.0917581,Missouri,64108,1154
Border Town Pub,brewpub,22 N Dixie Hwy # 28,Momence,Illinois,60954-1504,-87.66261835,41.16238275,Illinois,60954,1155
Border X Brewing,micro,2181 Logan Ave,San Diego,California,92113-2203,-117.1397541,32.6982174,California,92113,1156
Border X Logan,brewpub,2181 Logan Ave,San Diego,California,92113-2203,-117.1397541,32.6982174,California,92113,1157
Borderlands Brewing Co,micro,119 E Toole Ave,Tucson,Arizona,85701-1210,-110.9676305,32.22334681,Arizona,85701,1158
"Boring Brewing Co., LLC",micro,38250 Pioneer Blvd,Sandy,Oregon,97009,-122.2702045,45.39722205,Oregon,97009,1159
Boscos Squared,brewpub,2120 Madison Ave,Memphis,Tennessee,38104-6502,-90.0401714,35.1417658,Tennessee,38104,1160
